=================   2019-10-29   =================
,194,32,09,49,302,31*61
$BDGSV,3,3,12,10,11,189,27,13,42,222,36,14,59,081,40,16,60,338,38*6A
$GNRMC,073452.000,A,3019.05258,N,12003.51374,E,0.00,0.00,291019,,,A*70
$GNVTG,0.00,T,,M,0.00,N,0.00,K,A*23
$GNZDA,073452.000,29,10,2019,00,00*4F
$GPTXT,01,01,01,ANTENNA OK*35
$GNGGA,073453.000,3019.05258,N,12003.51374,E,1,21,0.8,33.0,M,0.0,M,,*4A
$GNGLL,3019.05258,N,12003.51374,E,073453.000,A,A*44
$GPGSA,A,3,10,12,15,20,21,24,25,32,33,34,35,36,1.4,0.8,1.1*3C
$BDGSA,A,3,03,06,07,08,09,10,13,14,16,,,,1.4,0.8,1.1*2C
$GPGSV,4,1,13,10,44,322,33,12,30,122,35,15,30,068,34,18,,,22*4C
$GPGSV,4,2,13,20,76,322,31,21,38,224,33,24,62,040,36,25,17,166,28*7A
$GPGSV,4,3,13,32,22,285,29,33,69,095,30,34,60,127,31,35,07,162,22*7A
$GPGSV,4,4,13,36,54,166,25*49
$BDGSV,3,1,12,01,,,32,02,,,31,03,53,198,33,04,,,32*59
$BDGSV,3,2,12,06,62,351,35,07,28,168,33,08,28,194,32,09,49,302,31*63
$BDGSV,3,3,12,10,11,189,27,13,42,222,36,14,59,081,40,16,60,338,38*6A
$GNRMC,073453.000,A,3019.05258,N,12003.51374,E,0.00,0.00,291019,,,A*71
$GNVTG,0.00,T,,M,0.00,N,0.00,K,A*23
$GNZDA,073453.000,29,10,2019,00,00*4E
$GPTXT,01,01,01,ANTENNA OK*35
$GNGGA,073454.000,3019.05258,N,12003.51374,E,1,21,0.8,33.0,M,0.0,M,,*4D
$GNGLL,3019.05258,N,12003.51374,E,073454.000,A,A*43
$GPGSA,A,3,10,12,15,20,21,24,25,32,33,34,35,36,1.4,0.8,1.1*3C
$BDGSA,A,3,03,06,07,08,09,10,13,14,16,,,,1.4,0.8,1.1*2C
$GPGSV,4,1,13,10,44,322,33,12,30,122,35,15,30,068,34,18,,,22*4C
$GPGSV,4,2,13,20,76,322,32,21,38,224,33,24,62,040,37,25,17,166,28*78
$GPGSV,4,3,13,32,22,285,29,33,69,095,31,34,60,127,32,35,07,162,22*78
$GPGSV,4,4,13,36,54,166,25*49
$BDGSV,3,1,12,01,,,32,02,,,31,03,53,198,33,04,,,32*59
$BDGSV,3,2,12,06,62,351,35,07,28,168,32,08,28,194,31,09,49,302,31*61
$BDGSV,3,3,12,10,11,189,27,13,42,222,36,14,59,081,39,16,60,338,38*64
$GNRMC,073454.000,A,3019.05258,N,12003.51374,E,0.00,0.00,291019,,,A*76
$GNVTG,0.00,T,,M,0.00,N,0.00,K,A*23
$GNZDA,073454.000,29,10,2019,00,00*49
$GPTXT,01,01,01,ANTENNA OK*35
$GNGGA,073455.000,3019.05257,N,12003.51374,E,1,21,0.8,33.0,M,0.0,M,,*43
$GNGLL,3019.05257,N,12003.51374,E,073455.000,A,A*4D
$GPGSA,A,3,10,12,15,20,21,24,25,32,33,34,35,36,1.4,0.8,1.1*3C
$BDGSA,A,3,03,06,07,08,09,10,13,14,16,,,,1.4,0.8,1.1*2C
$GPGSV,4,1,13,10,44,322,33,12,30,122,35,15,30,068,34,18,,,22*4C
$GPGSV,4,2,13,20,76,322,32,21,38,224,33,24,62,040,37,25,17,166,28*78
$GPGSV,4,3,13,32,22,285,29,33,69,095,31,34,60,127,32,35,07,162,22*78
$GPGSV,4,4,13,36,54,166,25*49
$BDGSV,3,1,12,01,,,32,02,,,31,03,53,198,33,04,,,32*59
$BDGSV,3,2,12,06,62,351,35,07,28,168,32,08,28,194,31,09,49,302,31*61
$BDGSV,3,3,12,10,11,189,27,13,42,222,36,14,59,081,39,16,60,338,38*64
$GNRMC,073455.000,A,3019.05257,N,12003.51374,E,0.00,0.00,291019,,,A*78
$GNVTG,0.00,T,,M,0.00,N,0.00,K,A*23
$GNZDA,073455.000,29,10,2019,00,00*48
$GPTXT,01,01,01,ANTENNA OK*35
$GNGGA,073456.000,3019.05257,N,12003.51374,E,1,21,0.8,33.0,M,0.0,M,,*40
$GNGLL,3019.05257,N,12003.51374,E,073456.000,A,A*4E
$GPGSA,A,3,10,12,15,20,21,24,25,32,33,34,35,36,1.4,0.8,1.1*3C
$BDGSA,A,3,03,06,07,08,09,10,13,14,16,,,,1.4,0.8,1.1*2C
$GPGSV,4,1,13,10,44,322,33,12,30,122,35,15,30,068,34,18,,,22*4C
$GPGSV,4,2,13,20,76,322,32,21,38,224,33,24,61,040,36,25,17,166,28*7A
$GPGSV,4,3,13,32,22,285,29,33,69,095,31,34,60,127,32,35,07,162,22*78
$GPGSV,4,4,13,36,54,166,25*49
$BDGSV,3,1,12,01,,,32,02,,,31,03,53,198,33,04,,,32*59
$BDGSV,3,2,12,06,62,351,35,07,28,168,32,08,28,194,31,09,49,302,30*60
$BDGSV,3,3,12,10,11,189,27,13,42,222,36,14,59,081,39,16,60,338,38*64
$GNRMC,073456.000,A,3019.05257,N,12003.51374,E,0.00,0.00,291019,,,A*7B
$GNVTG,0.00,T,,M,0.00,N,0.00,K,A*23
$GNZDA,073456.000,29,10,2019,00,00*4B
$GPTXT,01,01,01,ANTENNA OK*35
$GNGGA,073457.000,3019.05257,N,12003.51374,E,1,21,0.8,33.0,M,0.0,M,,*41
$GNGLL,3019.05257,N,12003.51374,E,073457.000,A,A*4F
$GPGSA,A,3,10,12,15,20,21,24,25,32,33,34,35,36,1.4,0.8,1.1*3C
$BDGSA,A,3,03,06,07,08,09,10,13,14,16,,,,1.4,0.8,1.1*2C
$GPGSV,3,1,12,10,44,322,32,12,30,122,35,15,30,068,33,20,76,322,31*77
$GPGSV,3,2,12,21,38,224,33,24,61,040,36,25,17,166,29,32,22,285,29*79
$GPGSV,3,3,12,33,69,095,30,34,60,127,32,35,07,162,22,36,54,166,25*78
$BDGSV,3,1,12,01,,,32,02,,,31,03,53,198,33,04,,,32*59
$BDGSV,3,2,12,06,62,351,35,07,28,168,32,08,28,194,31,09,49,302,30*60
$BDGSV,3,3,12,10,11,189,26,13,42,222,35,14,59,081,38,16,60,338,37*68
$GNRMC,073457.000,A,3019.05257,N,12003.51374,E,0.00,0.00,291019,,,A*7A
$GNVTG,0.00,T,,M,0.00,N,0.00,K,A*23
$GNZDA,073457.000,29,10,2019,00,00*4A
$GPTXT,01,01,01,ANTENNA OK*35
$GNGGA,073458.000,3019.05257,N,12003.51374,E,1,21,0.8,33.0,M,0.0,M,,*4E
$GNGLL,3019.05257,N,12003.51374,E,073458.000,A,A*40
$GPGSA,A,3,10,12,15,20,21,24,25,32,33,34,35,36,1.4,0.8,1.1*3C
$BDGSA,A,3,03,06,07,08,09,10,13,14,16,,,,1.4,0.8,1.1*2C
$GPGSV,3,1,12,10,44,322,32,12,30,122,34,15,30,068,33,20,76,322,31*76
$GPGSV,3,2,12,21,38,224,33,24,61,040,36,25,17,166,29,32,22,285,29*79
$GPGSV,3,3,12,33,69,095,30,34,60,127,32,35,07,162,22,36,54,166,25*78
$BDGSV,3,1,12,01,,,32,02,,,31,03,53,198,33,04,,,32*59
$BDGSV,3,2,12,06,62,351,35,07,28,168,32,08,28,194,30,09,49,302,30*61
$BDGSV,3,3,12,10,11,189,26,13,42,222,35,14,59,081,38,16,60,338,37*68
$GNRMC,073458.000,A,3019.05257,N,12003.51374,E,0.00,0.00,291019,,,A*75
$GNVTG,0.00,T,,M,0.00,N,0.00,K,A*23
$GNZDA,073458.000,29,10,2019,00,00*45
$GPTXT,01,01,01,ANTENNA OK*35
$GNGGA,073459.000,3019.05256,N,12003.51374,E,1,21,0.8,33.0,M,0.0,M,,*4E
$GNGLL,3019.05256,N,12003.51374,E,073459.000,A,A*40
$GPGSA,A,3,10,12,15,20,21,24,25,32,33,34,35,36,1.4,0.8,1.1*3C
$BDGSA,A,3,03,06,07,08,09,10,13,14,16,,,,1.4,0.8,1.1*2C
$GPGSV,3,1,12,10,44,322,32,12,30,122,34,15,30,068,35,20,76,322,31*70
$GPGSV,3,2,12,21,38,224,32,24,61,040,36,25,17,166,29,32,22,285,29*78
$GPGSV,3,3,12,33,69,095,30,34,60,127,32,35,07,162,22,36,54,166,25*78
$BDGSV,3,1,12,01,,,32,02,,,31,03,53,198,33,04,,,32*59
$BDGSV,3,2,12,06,62,351,35,07,28,168,32,08,28,194,30,09,49,302,30*61
$BDGSV,3,3,12,10,11,189,26,13,42,222,36,14,59,081,39,16,60,338,38*65
$GNRMC,073459.000,A,3019.05256,N,12003.51374,E,0.00,0.00,291019,,,A*75
$GNVTG,0.00,T,,M,0.00,N,0.00,K,A*23
$GNZDA,073459.000,29,10,2019,00,00*44
$GPTXT,01,01,01,ANTENNA OK*35
$GNGGA,073500.000,3019.05256,N,12003.51374,E,1,21,0.8,33.0,M,0.0,M,,*43
$GNGLL,3019.05256,N,12003.51374,E,073500.000,A,A*4D
$GPGSA,A,3,10,12,15,20,21,24,25,32,33,34,35,36,1.4,0.8,1.1*3C
$BDGSA,A,3,03,06,07,08,09,10,13,14,16,,,,1.4,0.8,1.1*2C
$GPGSV,3,1,12,10,44,322,33,12,30,122,35,15,30,068,35,20,76,322,31*70
$GPGSV,3,2,12,21,38,224,32,24,61,040,36,25,17,166,30,32,22,285,29*70
$GPGSV,3,3,12,33,69,095,31,34,60,127,32,35,07,162,22,36,54,166,25*79
$BDGSV,3,1,12,01,,,32,02,,,31,03,53,198,33,04,,,32*59
$BDGSV,3,2,12,06,62,351,35,07,28,168,32,08,28,194,30,09,49,302,30*61
$BDGSV,3,3,12,10,11,189,26,13,42,222,36,14,59,081,39,16,60,338,38*65
$GNRMC,073500.000,A,3019.05256,N,12003.51374,E,0.00,0.00,291019,,,A*78
$GNVTG,0.00,T,,M,0.00,N,0.00,K,A*23
$GNZDA,073500.000,29,10,2019,00,00*49
$GPTXT,01,01,01,ANTENNA OK*35
$GNGGA,073501.000,3019.05255,N,12003.51374,E,1,21,0.8,33.0,M,0.0,M,,*41
$GNGLL,3019.05255,N,12003.51374,E,073501.000,A,A*4F
$GPGSA,A,3,10,12,15,20,21,24,25,32,33,34,35,36,1.4,0.8,1.1*3C
$BDGSA,A,3,03,06,07,08,09,10,13,14,16,,,,1.4,0.8,1.1*2C
$GPGSV,3,1,12,10,44,322,33,12,30,122,35,15,30,068,35,20,76,322,31*70
$GPGSV,3,2,12,21,38,224,32,24,61,040,36,25,17,166,30,32,22,285,29*70
$GPGSV,3,3,12,33,69,095,31,34,60,127,32,35,07,162,22,36,54,166,25*79
$BDGSV,3,1,12,01,,,32,02,,,31,03,53,198,33,04,,,32*59
$BDGSV,3,2,12,06,62,351,35,07,28,168,32,08,28,194,30,09,49,302,30*61
$BDGSV,3,3,12,10,11,189,26,13,42,222,36,14,59,081,38,16,60,338,37*6B
$GNRMC,073501.000,A,3019.05255,N,12003.51374,E,0.00,0.00,291019,,,A*7A
$GNVTG,0.00,T,,M,0.00,N,0.00,K,A*23
$GNZDA,073501.000,29,10,2019,00,00*48
$GPTXT,01,01,01,ANTENNA OK*35
$GNGGA,073502.000,3019.05255,N,12003.51374,E,1,21,0.8,33.0,M,0.0,M,,*42
$GNGLL,3019.05255,N,12003.51374,E,073502.000,A,A*4C
$GPGSA,A,3,10,12,15,20,21,24,25,32,33,34,35,36,1.4,0.8,1.1*3C
$BDGSA,A,3,03,06,07,08,09,10,13,14,16,,,,1.4,0.8,1.1*2C
$GPGSV,3,1,12,10,44,322,32,12,30,122,35,15,30,068,34,20,76,322,31*70
$GPGSV,3,2,12,21,38,224,32,24,61,040,36,25,17,166,30,32,22,285,29*70
$GPGSV,3,3,12,33,69,095,31,34,60,127,32,35,07,162,22,36,54,166,25*79
$BDGSV,3,1,12,01,,,32,02,,,31,03,53,198,33,04,,,32*59
$BDGSV,3,2,12,06,62,351,35,07,28,168,32,08,28,194,31,09,49,302,30*60
$BDGSV,3,3,12,10,11,189,26,13,42,222,36,14,59,081,38,16,60,338,37*6B
$GNRMC,073502.000,A,3019.05255,N,12003.51374,E,0.00,0.00,291019,,,A*79
$GNVTG,0.00,T,,M,0.00,N,0.00,K,A*23
$GNZDA,073502.000,29,10,2019,00,00*4B
$GPTXT,01,01,01,ANTENNA OK*35
$GNGGA,073503.000,3019.05254,N,12003.51374,E,1,21,0.8,33.0,M,0.0,M,,*42
$GNGLL,3019.05254,N,12003.51374,E,073503.000,A,A*4C
$GPGSA,A,3,10,12,15,20,21,24,25,32,33,34,35,36,1.4,0.8,1.1*3C
$BDGSA,A,3,03,06,07,08,09,10,13,14,16,,,,1.4,0.8,1.1*2C
$GPGSV,3,1,12,10,44,322,32,12,30,122,35,15,30,068,34,20,76,322,31*70
$GPGSV,3,2,12,21,38,224,32,24,61,040,36,25,17,166,30,32,22,285,29*70
$GPGSV,3,3,12,33,69,095,30,34,60,127,32,35,07,162,22,36,54,166,25*78
$BDGSV,3,1,12,01,,,32,02,,,31,03,53,198,33,04,,,32*59
$BDGSV,3,2,12,06,62,351,36,07,28,168,32,08,28,194,31,09,49,302,30*63
$BDGSV,3,3,12,10,11,189,26,13,42,222,36,14,59,081,39,16,60,338,38*65
$GNRMC,073503.000,A,3019.05254,N,12003.51374,E,0.00,0.00,291019,,,A*79
$GNVTG,0.00,T,,M,0.00,N,0.00,K,A*23
$GNZDA,073503.000,29,10,2019,00,00*4A
$GPTXT,01,01,01,ANTENNA OK*35
$GNGGA,073504.000,3019.05254,N,12003.51374,E,1,21,0.8,33.0,M,0.0,M,,*45
$GNGLL,3019.05254,N,12003.51374,E,073504.000,A,A*4B
$GPGSA,A,3,10,12,15,20,21,24,25,32,33,34,35,36,1.4,0.8,1.1*3C
$BDGSA,A,3,03,06,07,08,09,10,13,14,16,,,,1.4,0.8,1.1*2C
$GPGSV,3,1,12,10,44,322,32,12,30,122,35,15,30,068,34,20,76,322,31*70
$GPGSV,3,2,12,21,38,224,32,24,61,040,36,25,17,166,30,32,22,285,29*70
$GPGSV,3,3,12,33,69,095,30,34,60,127,32,35,07,162,22,36,54,166,25*78
$BDGSV,3,1,12,01,,,32,02,,,31,03,53,198,34,04,,,32*5E
$BDGSV,3,2,12,06,62,351,36,07,28,168,33,08,28,194,31,09,49,302,31*63
$BDGSV,3,3,12,10,11,189,26,13,42,222,36,14,59,081,39,16,60,338,38*65
$GNRMC,073504.000,A,3019.05254,N,12003.51374,E,0.00,0.00,291019,,,A*7E
$GNVTG,0.00,T,,M,0.00,N,0.00,K,A*23
$GNZDA,073504.000,29,10,2019,00,00*4D
$GPTXT,01,01,01,ANTENNA OK*35
$GNGGA,073505.000,3019.05254,N,12003.51374,E,1,21,0.8,33.0,M,0.0,M,,*44
$GNGLL,3019.05254,N,12003.51374,E,073505.000,A,A*4A
$GPGSA,A,3,10,12,15,20,21,24,25,32,33,34,35,36,1.4,0.8,1.1*3C
$BDGSA,A,3,03,06,07,08,09,10,13,14,16,,,,1.4,0.8,1.1*2C
$GPGSV,3,1,12,10,44,322,32,12,30,122,35,15,30,068,33,20,76,322,30*76
$GPGSV,3,2,12,21,38,224,31,24,61,040,36,25,17,166,30,32,22,285,28*72
$GPGSV,3,3,12,33,69,095,30,34,60,127,31,35,07,162,22,36,54,166,25*7B
$BDGSV,3,1,12,01,,,32,02,,,31,03,53,198,34,04,,,32*5E
$BDGSV,3,2,12,06,62,351,36,07,28,168,33,08,28,194,31,09,49,302,31*63
$BDGSV,3,3,12,10,11,189,26,13,42,222,37,14,59,081,40,16,60,338,39*6B
$GNRMC,073505.000,A,3019.05254,N,12003.51374,E,0.00,0.00,291019,,,A*7F
$GNVTG,0.00,T,,M,0.00,N,0.00,K,A*23
$GNZDA,073505.000,29,10,2019,00,00*4C
$GPTXT,01,01,01,ANTENNA OK*35
$GNGGA,073506.000,3019.05254,N,12003.51374,E,1,21,0.8,33.0,M,0.0,M,,*47
$GNGLL,3019.05254,N,12003.51374,E,073506.000,A,A*49
$GPGSA,A,3,10,12,15,20,21,24,25,32,33,34,35,36,1.4,0.8,1.1*3C
$BDGSA,A,3,03,06,07,08,09,10,13,14,16,,,,1.4,0.8,1.1*2C
$GPGSV,3,1,12,10,44,322,31,12,30,122,35,15,30,068,33,20,76,322,30*75
$GPGSV,3,2,12,21,38,224,31,24,61,040,35,25,17,166,30,32,22,285,28*71
$GPGSV,3,3,12,33,69,095,30,34,60,127,31,35,07,162,22,36,54,166,25*7B
$BDGSV,3,1,12,01,,,32,02,,,31,03,53,198,34,04,,,33*5F
$BDGSV,3,2,12,06,62,351,36,07,28,168,33,08,28,194,31,09,49,302,31*63
$BDGSV,3,3,12,10,11,189,26,13,42,222,37,14,59,081,40,16,60,338,39*6B
$GNRMC,073506.000,A,3019.05254,N,12003.51374,E,0.00,0.00,291019,,,A*7C
$GNVTG,0.00,T,,M,0.00,N,0.00,K,A*23
$GNZDA,073506.000,29,10,2019,00,00*4F
$GPTXT,01,01,01,ANTENNA OK*35
$GNGGA,073507.000,3019.05253,N,12003.51374,E,1,21,0.8,33.0,M,0.0,M,,*41
$GNGLL,3019.05253,N,12003.51374,E,073507.000,A,A*4F
$GPGSA,A,3,10,12,15,20,21,24,25,32,33,34,35,36,1.4,0.8,1.1*3C
$BDGSA,A,3,03,06,07,08,09,10,13,14,16,,,,1.4,0.8,1.1*2C
$GPGSV,3,1,12,10,44,322,31,12,30,122,34,15,30,068,33,20,76,322,30*74
$GPGSV,3,2,12,21,38,224,31,24,61,040,35,25,17,166,30,32,22,285,28*71
$GPGSV,3,3,12,33,69,095,30,34,60,127,31,35,07,162,21,36,54,166,24*79
$BDGSV,3,1,12,01,,,32,02,,,31,03,53,198,34,04,,,33*5F
$BDGSV,3,2,12,06,62,351,36,07,28,168,33,08,28,194,31,09,49,302,31*63
$BDGSV,3,3,12,10,11,189,27,13,42,222,37,14,59,081,40,16,60,338,39*6A
$GNRMC,073507.000,A,3019.05253,N,12003.51374,E,0.00,0.00,291019,,,A*7A
$GNVTG,0.00,T,,M,0.00,N,0.00,K,A*23
$GNZDA,073507.000,29,10,2019,00,00*4E
$GPTXT,01,01,01,ANTENNA OK*35
$GNGGA,073508.000,3019.05253,N,12003.51374,E,1,21,0.8,33.0,M,0.0,M,,*4E
$GNGLL,3019.05253,N,12003.51374,E,073508.000,A,A*40
$GPGSA,A,3,10,12,15,20,21,24,25,32,33,34,35,36,1.4,0.8,1.1*3C
$BDGSA,A,3,03,06,07,08,09,10,13,14,16,,,,1.4,0.8,1.1*2C
$GPGSV,3,1,12,10,44,322,33,12,30,122,34,15,30,068,33,20,76,322,30*76
$GPGSV,3,2,12,21,38,224,31,24,61,040,35,25,17,166,30,32,22,285,28*71
$GPGSV,3,3,12,33,69,095,30,34,60,127,31,35,07,162,21,36,54,166,24*79
$BDGSV,3,1,12,01,,,32,02,,,31,03,53,198,34,04,,,33*5F
$BDGSV,3,2,12,06,62,351,37,07,28,168,33,08,28,194,31,09,49,302,31*62
$BDGSV,3,3,12,10,11,189,27,13,42,222,37,14,59,081,40,16,60,338,38*6B
$GNRMC,073508.000,A,3019.05253,N,12003.51374,E,0.00,0.00,291019,,,A*75
$GNVTG,0.00,T,,M,0.00,N,0.00,K,A*23
$GNZDA,073508.000,29,10,2019,00,00*41
$GPTXT,01,01,01,ANTENNA OK*35
$GNGGA,073509.000,3019.05252,N,12003.51374,E,1,21,0.8,33.0,M,0.0,M,,*4E
$GNGLL,3019.05252,N,12003.51374,E,073509.000,A,A*40
$GPGSA,A,3,10,12,15,20,21,24,25,32,33,34,35,36,1.4,0.8,1.1*3C
$BDGSA,A,3,03,06,07,08,09,10,13,14,16,,,,1.4,0.8,1.1*2C
$GPGSV,3,1,12,10,44,322,33,12,30,122,34,15,30,068,34,20,76,322,30*71
$GPGSV,3,2,12,21,38,224,31,24,61,040,35,25,17,166,30,32,22,285,28*71
$GPGSV,3,3,12,33,69,095,30,34,60,127,31,35,07,162,21,36,54,166,24*79
$BDGSV,3,1,12,01,,,32,02,,,31,03,53,198,34,04,,,33*5F
$BDGSV,3,2,12,06,62,351,37,07,28,168,33,08,28,194,32,09,49,302,32*62
$BDGSV,3,3,12,10,11,189,27,13,42,222,37,14,59,081,40,16,60,338,40*64
$GNRMC,073509.000,A,3019.05252,N,12003.51374,E,0.00,0.00,291019,,,A*75
$GNVTG,0.00,T,,M,0.00,N,0.00,K,A*23
$GNZDA,073509.000,29,10,2019,00,00*40
$GPTXT,01,01,01,ANTENNA OK*35
$GNGGA,073510.000,3019.05252,N,12003.51374,E,1,21,0.8,32.9,M,0.0,M,,*4E
$GNGLL,3019.05252,N,12003.51374,E,073510.000,A,A*48
$GPGSA,A,3,10,12,15,20,21,24,25,32,33,34,35,36,1.4,0.8,1.1*3C
$BDGSA,A,3,03,06,07,08,09,10,13,14,16,,,,1.4,0.8,1.1*2C
$GPGSV,3,1,12,10,44,322,33,12,30,122,35,15,30,068,34,20,76,322,30*70
$GPGSV,3,2,12,21,38,224,31,24,61,040,37,25,17,166,30,32,22,285,28*73
$GPGSV,3,3,12,33,69,095,30,34,60,127,31,35,07,162,21,36,54,166,24*79
$BDGSV,3,1,12,01,,,32,02,,,31,03,53,198,34,04,,,33*5F
$BDGSV,3,2,12,06,62,351,37,07,28,168,33,08,28,194,32,09,49,302,32*62
$BDGSV,3,3,12,10,11,189,27,13,42,222,37,14,59,081,40,16,60,338,40*64
$GNRMC,073510.000,A,3019.05252,N,12003.51374,E,0.00,0.00,291019,,,A*7D
$GNVTG,0.00,T,,M,0.00,N,0.00,K,A*23
$GNZDA,073510.000,29,10,2019,00,00*48
$GPTXT,01,01,01,ANTENNA OK*35
$GNGGA,073511.000,3019.05252,N,12003.51374,E,1,21,0.8,32.9,M,0.0,M,,*4F
$GNGLL,3019.05252,N,12003.51374,E,073511.000,A,A*49
$GPGSA,A,3,10,12,15,20,21,24,25,32,33,34,35,36,1.4,0.8,1.1*3C
$BDGSA,A,3,03,06,07,08,09,10,13,14,16,,,,1.4,0.8,1.1*2C
$GPGSV,3,1,12,10,44,322,33,12,30,122,35,15,30,068,34,20,76,322,30*70
$GPGSV,3,2,12,21,38,224,31,24,61,040,37,25,17,166,31,32,22,285,28*72
$GPGSV,3,3,12,33,69,095,30,34,60,127,32,35,07,162,21,36,54,166,24*7A
$BDGSV,3,1,12,01,,,32,02,,,31,03,53,198,34,04,,,33*5F
$BDGSV,3,2,12,06,62,351,36,07,28,168,33,08,28,194,32,09,49,302,32*63
$BDGSV,3,3,12,10,11,189,27,13,42,222,37,14,59,081,40,16,60,338,39*6A
$GNRMC,073511.000,A,3019.05252,N,12003.51374,E,0.00,0.00,291019,,,A*7C
$GNVTG,0.00,T,,M,0.00,N,0.00,K,A*23
$GNZDA,073511.000,29,10,2019,00,00*49
$GPTXT,01,01,01,ANTENNA OK*35
$GNGGA,073512.000,3019.05251,N,12003.51374,E,1,21,0.8,32.9,M,0.0,M,,*4F
$GNGLL,3019.05251,N,12003.51374,E,073512.000,A,A*49
$GPGSA,A,3,10,12,15,20,21,24,25,32,33,34,35,36,1.4,0.8,1.1*3C
$BDGSA,A,3,03,06,07,08,09,10,13,14,16,,,,1.4,0.8,1.1*2C
$GPGSV,3,1,12,10,44,322,32,12,30,122,35,15,30,068,34,20,76,322,31*70
$GPGSV,3,2,12,21,38,224,31,24,61,040,37,25,17,166,31,32,22,285,28*72
$GPGSV,3,3,12,33,69,095,30,34,60,127,32,35,07,162,21,36,54,166,24*7A
$BDGSV,3,1,12,01,,,32,02,,,31,03,53,198,34,04,,,33*5F
$BDGSV,3,2,12,06,62,351,36,07,28,168,33,08,27,194,32,09,49,302,32*6C
$BDGSV,3,3,12,10,11,189,27,13,42,222,37,14,59,081,40,16,60,338,39*6A
$GNRMC,073512.000,A,3019.05251,N,12003.51374,E,0.00,0.00,291019,,,A*7C
$GNVTG,0.00,T,,M,0.00,N,0.00,K,A*23
$GNZDA,073512.000,29,10,2019,00,00*4A
$GPTXT,01,01,01,ANTENNA OK*35
$GNGGA,073513.000,3019.05251,N,12003.51374,E,1,21,0.8,32.9,M,0.0,M,,*4E
$GNGLL,3019.05251,N,12003.51374,E,073513.000,A,A*48
$GPGSA,A,3,10,12,15,20,21,24,25,32,33,34,35,36,1.4,0.8,1.1*3C
$BDGSA,A,3,03,06,07,08,09,10,13,14,16,,,,1.4,0.8,1.1*2C
$GPGSV,3,1,12,10,44,322,32,12,30,122,36,15,30,068,34,20,76,322,31*73
$GPGSV,3,2,12,21,38,224,31,24,61,040,37,25,17,166,31,32,22,285,29*73
$GPGSV,3,3,12,33,69,095,30,34,60,127,32,35,07,162,21,36,54,166,25*7B
$BDGSV,3,1,12,01,,,32,02,,,31,03,53,198,34,04,,,33*5F
$BDGSV,3,2,12,06,62,351,36,07,28,168,33,08,27,194,31,09,49,302,31*6C
$BDGSV,3,3,12,10,11,189,27,13,42,222,37,14,59,081,40,16,60,338,38*6B
$GNRMC,073513.000,A,3019.05251,N,12003.51374,E,0.00,0.00,291019,,,A*7D
$GNVTG,0.00,T,,M,0.00,N,0.00,K,A*23
$GNZDA,073513.000,29,10,2019,00,00*4B
$GPTXT,01,01,01,ANTENNA OK*35
$GNGGA,073514.000,3019.05251,N,12003.51374,E,1,21,0.8,32.9,M,0.0,M,,*49
$GNGLL,3019.05251,N,12003.51374,E,073514.000,A,A*4F
$GPGSA,A,3,10,12,15,20,21,24,25,32,33,34,35,36,1.4,0.8,1.1*3C
$BDGSA,A,3,03,06,07,08,09,10,13,14,16,,,,1.4,0.8,1.1*2C
$GPGSV,3,1,12,10,44,322,33,12,30,122,36,15,30,068,35,20,76,322,32*70
$GPGSV,3,2,12,21,38,224,31,24,61,040,37,25,17,166,31,32,23,285,29*72
$GPGSV,3,3,12,33,69,095,31,34,60,127,32,35,07,162,21,36,54,166,25*7A
$BDGSV,3,1,12,01,,,32,02,,,31,03,53,198,34,04,,,33*5F
$BDGSV,3,2,12,06,62,351,36,07,28,168,33,08,27,194,31,09,49,302,31*6C
$BDGSV,3,3,12,10,11,189,27,13,42,222,37,14,59,081,40,16,60,338,38*6B
$GNRMC,073514.000,A,3019.05251,N,12003.51374,E,0.00,0.00,291019,,,A*7A
$GNVTG,0.00,T,,M,0.00,N,0.00,K,A*23
$GNZDA,073514.000,29,10,2019,00,00*4C
$GPTXT,01,01,01,ANTENNA OK*35
$GNGGA,073515.000,3019.05250,N,12003.51375,E,1,21,0.8,32.9,M,0.0,M,,*48
$GNGLL,3019.05250,N,12003.51375,E,073515.000,A,A*4E
$GPGSA,A,3,10,12,15,20,21,24,25,32,33,34,35,36,1.4,0.8,1.1*3C
$BDGSA,A,3,03,06,07,08,09,10,13,14,16,,,,1.4,0.8,1.1*2C
$GPGSV,3,1,12,10,44,322,33,12,30,121,36,15,30,068,35,20,76,322,32*73
$GPGSV,3,2,12,21,38,224,31,24,61,040,38,25,17,166,31,32,23,285,29*7D
$GPGSV,3,3,12,33,69,095,31,34,60,127,32,35,07,162,21,36,54,166,25*7A
$BDGSV,3,1,12,01,,,32,02,,,31,03,53,198,34,04,,,33*5F
$BDGSV,3,2,12,06,62,351,36,07,28,168,33,08,27,194,31,09,49,302,31*6C
$BDGSV,3,3,12,10,11,189,27,13,42,222,37,14,59,081,40,16,60,338,38*6B
$GNRMC,073515.000,A,3019.05250,N,12003.51375,E,0.00,0.00,291019,,,A*7B
$GNVTG,0.00,T,,M,0.00,N,0.00,K,A*23
$GNZDA,073515.000,29,10,2019,00,00*4D
$GPTXT,01,01,01,ANTENNA OK*35
$GNGGA,073516.000,3019.05250,N,12003.51375,E,1,21,0.8,32.9,M,0.0,M,,*4B
$GNGLL,3019.05250,N,12003.51375,E,073516.000,A,A*4D
$GPGSA,A,3,10,12,15,20,21,24,25,32,33,34,35,36,1.4,0.8,1.1*3C
$BDGSA,A,3,03,06,07,08,09,10,13,14,16,,,,1.4,0.8,1.1*2C
$GPGSV,3,1,12,10,44,322,33,12,30,121,36,15,30,068,35,20,76,321,32*70
$GPGSV,3,2,12,21,38,224,31,24,61,040,38,25,17,166,31,32,23,285,29*7D
$GPGSV,3,3,12,33,69,095,31,34,60,127,32,35,07,162,22,36,54,166,25*79
$BDGSV,3,1,12,01,,,32,02,,,31,03,53,198,34,04,,,33*5F
$BDGSV,3,2,12,06,62,351,36,07,28,168,33,08,27,194,31,09,49,302,31*6C
$BDGSV,3,3,12,10,11,189,27,13,42,222,36,14,59,081,39,16,60,338,38*64
$GNRMC,073516.000,A,3019.05250,N,12003.51375,E,0.00,0.00,291019,,,A*78
$GNVTG,0.00,T,,M,0.00,N,0.00,K,A*23
$GNZDA,073516.000,29,10,2019,00,00*4E
$GPTXT,01,01,01,ANTENNA OK*35
$GNGGA,073517.000,3019.05250,N,12003.51375,E,1,21,0.8,32.9,M,0.0,M,,*4A
$GNGLL,3019.05250,N,12003.51375,E,073517.000,A,A*4C
$GPGSA,A,3,10,12,15,20,21,24,25,32,33,34,35,36,1.4,0.8,1.1*3C
$BDGSA,A,3,03,06,07,08,09,10,13,14,16,,,,1.4,0.8,1.1*2C
$GPGSV,3,1,12,10,44,322,33,12,30,121,36,15,30,068,35,20,76,321,32*70
$GPGSV,3,2,12,21,38,224,31,24,61,040,38,25,17,166,31,32,23,285,29*7D
$GPGSV,3,3,12,33,69,095,31,34,60,127,32,35,07,162,22,36,54,166,25*79
$BDGSV,3,1,12,01,,,32,02,,,31,03,53,198,34,04,,,33*5F
$BDGSV,3,2,12,06,62,351,36,07,28,168,33,08,27,194,31,09,49,302,31*6C
$BDGSV,3,3,12,10,11,189,27,13,42,222,36,14,59,081,40,16,60,338,38*6A
$GNRMC,073517.000,A,3019.05250,N,12003.51375,E,0.00,0.00,291019,,,A*79
$GNVTG,0.00,T,,M,0.00,N,0.00,K,A*23
$GNZDA,073517.000,29,10,2019,00,00*4F
$GPTXT,01,01,01,ANTENNA OK*35
$GNGGA,073518.000,3019.05249,N,12003.51376,E,1,21,0.8,32.9,M,0.0,M,,*4E
$GNGLL,3019.05249,N,12003.51376,E,073518.000,A,A*48
$GPGSA,A,3,10,12,15,20,21,24,25,32,33,34,35,36,1.4,0.8,1.1*3C
$BDGSA,A,3,03,06,07,08,09,10,13,14,16,,,,1.4,0.8,1.1*2C
$GPGSV,3,1,12,10,44,322,33,12,30,121,36,15,30,068,35,20,76,321,31*73
$GPGSV,3,2,12,21,38,224,31,24,61,040,38,25,17,166,32,32,23,285,29*7E
$GPGSV,3,3,12,33,69,095,31,34,60,127,32,35,07,162,22,36,54,166,25*79
$BDGSV,3,1,12,01,,,32,02,,,31,03,53,198,34,04,,,33*5F
$BDGSV,3,2,12,06,62,351,36,07,28,168,33,08,27,194,31,09,49,302,31*6C
$BDGSV,3,3,12,10,11,189,27,13,42,222,37,14,59,081,40,16,60,338,39*6A
$GNRMC,073518.000,A,3019.05249,N,12003.51376,E,0.00,0.00,291019,,,A*7D
$GNVTG,0.00,T,,M,0.00,N,0.00,K,A*23
$GNZDA,073518.000,29,10,2019,00,00*40
$GPTXT,01,01,01,ANTENNA OK*35
$GNGGA,073519.000,3019.05249,N,12003.51376,E,1,21,0.8,32.9,M,0.0,M,,*4F
$GNGLL,3019.05249,N,12003.51376,E,073519.000,A,A*49
$GPGSA,A,3,10,12,15,20,21,24,25,32,33,34,35,36,1.4,0.8,1.1*3C
$BDGSA,A,3,03,06,07,08,09,10,13,14,16,,,,1.4,0.8,1.1*2C
$GPGSV,3,1,12,10,44,322,33,12,30,121,35,15,30,068,35,20,76,321,31*70
$GPGSV,3,2,12,21,38,224,28,24,61,040,36,25,17,166,32,32,23,285,29*78
$GPGSV,3,3,12,33,69,095,31,34,60,127,31,35,07,162,22,36,54,166,25*7A
$BDGSV,3,1,12,01,,,32,02,,,31,03,53,198,34,04,,,33*5F
$BDGSV,3,2,12,06,62,351,36,07,28,168,33,08,27,194,31,09,49,302,31*6C
$BDGSV,3,3,12,10,11,189,27,13,42,222,37,14,59,081,40,16,60,338,39*6A
$GNRMC,073519.000,A,3019.05249,N,12003.51376,E,0.00,0.00,291019,,,A*7C
$GNVTG,0.00,T,,M,0.00,N,0.00,K,A*23
$GNZDA,073519.000,29,10,2019,00,00*41
$GPTXT,01,01,01,ANTENNA OK*35
$GNGGA,073520.000,3019.05248,N,12003.51376,E,1,21,0.8,32.9,M,0.0,M,,*44
$GNGLL,3019.05248,N,12003.51376,E,073520.000,A,A*42
$GPGSA,A,3,10,12,15,20,21,24,25,32,33,34,35,36,1.4,0.8,1.1*3C
$BDGSA,A,3,03,06,07,08,09,10,13,14,16,,,,1.4,0.8,1.1*2C
$GPGSV,3,1,12,10,44,322,32,12,30,121,35,15,30,068,34,20,76,321,31*70
$GPGSV,3,2,12,21,38,224,28,24,61,040,36,25,17,166,32,32,23,285,29*78
$GPGSV,3,3,12,33,69,095,31,34,60,127,31,35,07,162,22,36,54,166,25*7A
$BDGSV,3,1,12,01,,,32,02,,,31,03,53,198,34,04,,,33*5F
$BDGSV,3,2,12,06,62,351,37,07,28,168,34,08,27,194,32,09,49,302,32*6A
$BDGSV,3,3,12,10,11,189,27,13,42,222,37,14,59,082,40,16,60,338,39*69
$GNRMC,073520.000,A,3019.05248,N,12003.51376,E,0.00,0.00,291019,,,A*77
$GNVTG,0.00,T,,M,0.00,N,0.00,K,A*23
$GNZDA,073520.000,29,10,2019,00,00*4B
$GPTXT,01,01,01,ANTENNA OK*35
$GNGGA,073521.000,3019.05248,N,12003.51376,E,1,21,0.8,32.9,M,0.0,M,,*45
$GNGLL,3019.05248,N,12003.51376,E,073521.000,A,A*43
$GPGSA,A,3,10,12,15,20,21,24,25,32,33,34,35,36,1.4,0.8,1.1*3C
$BDGSA,A,3,03,06,07,08,09,10,13,14,16,,,,1.4,0.8,1.1*2C
$GPGSV,3,1,12,10,44,322,32,12,30,121,34,15,30,068,34,20,76,321,31*71
$GPGSV,3,2,12,21,38,224,28,24,61,040,36,25,17,166,31,32,23,285,29*7B
$GPGSV,3,3,12,33,69,095,30,34,60,127,31,35,07,162,22,36,54,166,25*7B
$BDGSV,3,1,12,01,,,32,02,,,31,03,53,198,34,04,,,33*5F
$BDGSV,3,2,12,06,62,351,37,07,28,168,34,08,27,194,32,09,49,302,32*6A
$BDGSV,3,3,12,10,11,189,27,13,42,222,37,14,59,082,40,16,60,338,39*69
$GNRMC,073521.000,A,3019.05248,N,12003.51376,E,0.00,0.00,291019,,,A*76
$GNVTG,0.00,T,,M,0.00,N,0.00,K,A*23
$GNZDA,073521.000,29,10,2019,00,00*4A
$GPTXT,01,01,01,ANTENNA OK*35
$GNGGA,073522.000,3019.05248,N,12003.51376,E,1,21,0.8,32.9,M,0.0,M,,*46
$GNGLL,3019.05248,N,12003.51376,E,073522.000,A,A*40
$GPGSA,A,3,10,12,15,20,21,24,25,32,33,34,35,36,1.4,0.8,1.1*3C
$BDGSA,A,3,03,06,07,08,09,10,13,14,16,,,,1.4,0.8,1.1*2C
$GPGSV,4,1,13,10,44,322,32,12,30,121,34,15,30,068,34,18,,,22*4F
$GPGSV,4,2,13,20,76,321,30,21,38,224,28,24,61,040,36,25,17,166,31*79
$GPGSV,4,3,13,32,23,285,28,33,69,095,30,34,60,127,31,35,07,162,22*7A
$GPGSV,4,4,13,36,54,166,25*49
$BDGSV,3,1,12,01,,,32,02,,,31,03,53,198,34,04,,,33*5F
$BDGSV,3,2,12,06,62,351,37,07,28,168,34,08,27,194,32,09,49,302,32*6A
$BDGSV,3,3,12,10,11,189,27,13,42,222,37,14,59,082,40,16,60,338,39*69
$GNRMC,073522.000,A,3019.05248,N,12003.51376,E,0.00,0.00,291019,,,A*75
$GNVTG,0.00,T,,M,0.00,N,0.00,K,A*23
$GNZDA,073522.000,29,10,2019,00,00*49
$GPTXT,01,01,01,ANTENNA OK*35
$GNGGA,073523.000,3019.05247,N,12003.51376,E,1,20,0.8,32.9,M,0.0,M,,*49
$GNGLL,3019.05247,N,12003.51376,E,073523.000,A,A*4E
$GPGSA,A,3,10,12,15,20,24,25,32,33,34,35,36,,1.4,0.8,1.2*3C
$BDGSA,A,3,03,06,07,08,09,10,13,14,16,,,,1.4,0.8,1.2*2F
$GPGSV,4,1,13,10,44,322,32,12,30,121,34,15,30,068,33,18,,,22*48
$GPGSV,4,2,13,20,76,321,30,21,38,224,28,24,61,040,36,25,17,166,31*79
$GPGSV,4,3,13,32,23,285,28,33,69,095,30,34,60,127,31,35,07,162,22*7A
$GPGSV,4,4,13,36,54,166,25*49
$BDGSV,3,1,12,01,,,32,02,,,31,03,53,198,34,04,,,33*5F
$BDGSV,3,2,12,06,62,351,37,07,28,168,34,08,27,194,32,09,49,302,32*6A
$BDGSV,3,3,12,10,11,189,27,13,42,222,37,14,59,082,40,16,60,338,39*69
$GNRMC,073523.000,A,3019.05247,N,12003.51376,E,0.00,0.00,291019,,,A*7B
$GNVTG,0.00,T,,M,0.00,N,0.00,K,A*23
$GNZDA,073523.000,29,10,2019,00,00*48
$GPTXT,01,01,01,ANTENNA OK*35
$GNGGA,073524.000,3019.05246,N,12003.51376,E,1,21,0.8,32.9,M,0.0,M,,*4E
$GNGLL,3019.05246,N,12003.51376,E,073524.000,A,A*48
$GPGSA,A,3,10,12,15,20,21,24,25,32,33,34,35,36,1.4,0.8,1.1*3C
$BDGSA,A,3,03,06,07,08,09,10,13,14,16,,,,1.4,0.8,1.1*2C
$GPGSV,4,1,13,10,44,322,31,12,30,121,34,15,30,068,33,18,,,22*4B
$GPGSV,4,2,13,20,76,321,30,21,38,224,28,24,61,040,36,25,17,166,31*79
$GPGSV,4,3,13,32,23,285,28,33,69,095,30,34,60,127,31,35,07,162,22*7A
$GPGSV,4,4,13,36,54,166,25*49
$BDGSV,3,1,12,01,,,32,02,,,31,03,53,198,34,04,,,33*5F
$BDGSV,3,2,12,06,62,351,37,07,28,168,34,08,27,194,31,09,49,302,32*69
$BDGSV,3,3,12,10,11,189,27,13,42,222,37,14,59,082,40,16,60,338,39*69
$GNRMC,073524.000,A,3019.05246,N,12003.51376,E,0.00,0.00,291019,,,A*7D
$GNVTG,0.00,T,,M,0.00,N,0.00,K,A*23
$GNZDA,073524.000,29,10,2019,00,00*4F
$GPTXT,01,01,01,ANTENNA OK*35
$GNGGA,073525.000,3019.05245,N,12003.51377,E,1,21,0.8,32.9,M,0.0,M,,*4D
$GNGLL,3019.05245,N,12003.51377,E,073525.000,A,A*4B
$GPGSA,A,3,10,12,15,20,21,24,25,32,33,34,35,36,1.4,0.8,1.1*3C
$BDGSA,A,3,03,06,07,08,09,10,13,14,16,,,,1.4,0.8,1.1*2C
$GPGSV,4,1,13,10,44,322,31,12,30,121,33,15,30,068,34,18,,,21*48
$GPGSV,4,2,13,20,76,321,30,21,38,224,28,24,61,040,36,25,17,166,31*79
$GPGSV,4,3,13,32,23,285,28,33,69,095,30,34,60,127,31,35,07,162,22*7A
$GPGSV,4,4,13,36,54,166,25*49
$BDGSV,3,1,12,01,,,32,02,,,31,03,53,198,34,04,,,33*5F
$BDGSV,3,2,12,06,62,351,36,07,28,168,34,08,27,194,31,09,49,302,32*68
$BDGSV,3,3,12,10,11,189,28,13,42,222,37,14,59,082,40,16,60,338,38*67
$GNRMC,073525.000,A,3019.05245,N,12003.51377,E,0.00,0.00,291019,,,A*7E
$GNVTG,0.00,T,,M,0.00,N,0.00,K,A*23
$GNZDA,073525.000,29,10,2019,00,00*4E
$GPTXT,01,01,01,ANTENNA OK*35
$GNGGA,073526.000,3019.05245,N,12003.51377,E,1,20,0.8,32.9,M,0.0,M,,*4F
$GNGLL,3019.05245,N,12003.51377,E,073526.000,A,A*48
$GPGSA,A,3,10,12,15,20,24,25,32,33,34,35,36,,1.4,0.8,1.2*3C
$BDGSA,A,3,03,06,07,08,09,10,13,14,16,,,,1.4,0.8,1.2*2F
$GPGSV,4,1,13,10,44,322,33,12,30,121,33,15,30,068,34,18,,,21*4A
$GPGSV,4,2,13,20,76,321,30,21,38,224,28,24,61,040,36,25,17,166,31*79
$GPGSV,4,3,13,32,23,285,28,33,69,095,30,34,60,127,31,35,07,162,22*7A
$GPGSV,4,4,13,36,54,166,25*49
$BDGSV,3,1,12,01,,,32,02,,,31,03,53,198,34,04,,,33*5F
$BDGSV,3,2,12,06,62,351,36,07,28,168,34,08,27,194,31,09,49,302,32*68
$BDGSV,3,3,12,10,11,189,28,13,42,222,36,14,59,082,40,16,60,338,38*66
$GNRMC,073526.000,A,3019.05245,N,12003.51377,E,0.00,0.00,291019,,,A*7D
$GNVTG,0.00,T,,M,0.00,N,0.00,K,A*23
$GNZDA,073526.000,29,10,2019,00,00*4D
$GPTXT,01,01,01,ANTENNA OK*35
$GNGGA,073527.000,3019.05244,N,12003.51377,E,1,21,0.8,32.9,M,0.0,M,,*4E
$GNGLL,3019.05244,N,12003.51377,E,073527.000,A,A*48
$GPGSA,A,3,10,12,15,20,21,24,25,32,33,34,35,36,1.4,0.8,1.1*3C
$BDGSA,A,3,03,06,07,08,09,10,13,14,16,,,,1.4,0.8,1.1*2C
$GPGSV,4,1,13,10,44,322,33,12,30,121,33,15,30,068,34,18,,,21*4A
$GPGSV,4,2,13,20,76,321,30,21,38,224,28,24,61,040,37,25,17,166,31*78
$GPGSV,4,3,13,32,23,285,28,33,69,095,30,34,60,127,31,35,07,162,22*7A
$GPGSV,4,4,13,36,54,166,25*49
$BDGSV,3,1,12,01,,,32,02,,,31,03,53,198,34,04,,,33*5F
$BDGSV,3,2,12,06,62,351,36,07,28,168,33,08,27,194,31,09,49,302,31*6C
$BDGSV,3,3,12,10,11,189,28,13,42,222,36,14,59,082,40,16,60,338,38*66
$GNRMC,073527.000,A,3019.05244,N,12003.51377,E,0.00,0.00,291019,,,A*7D
$GNVTG,0.00,T,,M,0.00,N,0.00,K,A*23
$GNZDA,073527.000,29,10,2019,00,00*4C
$GPTXT,01,01,01,ANTENNA OK*35
$GNGGA,073528.000,3019.05244,N,12003.51377,E,1,21,0.8,32.9,M,0.0,M,,*41
$GNGLL,3019.05244,N,12003.51377,E,073528.000,A,A*47
$GPGSA,A,3,10,12,15,20,21,24,25,32,33,34,35,36,1.4,0.8,1.1*3C
$BDGSA,A,3,03,06,07,08,09,10,13,14,16,,,,1.4,0.8,1.1*2C
$GPGSV,4,1,13,10,44,322,33,12,30,121,33,15,30,069,34,18,,,21*4B
$GPGSV,4,2,13,20,76,321,30,21,38,224,28,24,61,040,37,25,17,166,31*78
$GPGSV,4,3,13,32,23,285,28,33,69,095,30,34,60,127,31,35,07,162,22*7A
$GPGSV,4,4,13,36,54,166,25*49
$BDGSV,3,1,12,01,,,32,02,,,31,03,53,198,34,04,,,33*5F
$BDGSV,3,2,12,06,62,351,36,07,28,168,33,08,27,194,31,09,49,302,31*6C
$BDGSV,3,3,12,10,11,189,28,13,42,222,36,14,59,082,39,16,60,338,38*68
$GNRMC,073528.000,A,3019.05244,N,12003.51377,E,0.00,0.00,291019,,,A*72
$GNVTG,0.00,T,,M,0.00,N,0.00,K,A*23
$GNZDA,073528.000,29,10,2019,00,00*43
$GPTXT,01,01,01,ANTENNA OK*35
$GNGGA,073529.000,3019.05243,N,12003.51377,E,1,21,0.8,32.9,M,0.0,M,,*47
$GNGLL,3019.05243,N,12003.51377,E,073529.000,A,A*41
$GPGSA,A,3,10,12,15,20,21,24,25,32,33,34,35,36,1.4,0.8,1.1*3C
$BDGSA,A,3,03,06,07,08,09,10,13,14,16,,,,1.4,0.8,1.1*2C
$GPGSV,3,1,12,10,44,322,33,12,30,121,33,15,30,069,34,20,76,321,30*77
$GPGSV,3,2,12,21,38,224,28,24,61,040,37,25,17,166,31,32,23,285,28*7B
$GPGSV,3,3,12,33,69,095,30,34,60,127,31,35,07,162,22,36,54,166,25*7B
$BDGSV,3,1,12,01,,,32,02,,,31,03,53,198,34,04,,,33*5F
$BDGSV,3,2,12,06,62,351,36,07,28,168,33,08,27,194,31,09,49,302,31*6C
$BDGSV,3,3,12,10,11,189,28,13,42,222,36,14,59,082,40,16,60,338,38*66
$GNRMC,073529.000,A,3019.05243,N,12003.51377,E,0.00,0.00,291019,,,A*74
$GNVTG,0.00,T,,M,0.00,N,0.00,K,A*23
$GNZDA,073529.000,29,10,2019,00,00*42
$GPTXT,01,01,01,ANTENNA OK*35
$GNGGA,073530.000,3019.05243,N,12003.51378,E,1,21,0.8,32.9,M,0.0,M,,*40
$GNGLL,3019.05243,N,12003.51378,E,073530.000,A,A*46
$GPGSA,A,3,10,12,15,20,21,24,25,32,33,34,35,36,1.4,0.8,1.1*3C
$BDGSA,A,3,03,06,07,08,09,10,13,14,16,,,,1.4,0.8,1.1*2C
$GPGSV,3,1,12,10,44,322,33,12,30,121,33,15,30,069,34,20,76,321,31*76
$GPGSV,3,2,12,21,38,224,29,24,61,040,37,25,17,166,31,32,23,285,29*7B
$GPGSV,3,3,12,33,69,095,31,34,60,127,31,35,07,162,22,36,54,166,25*7A
$BDGSV,3,1,12,01,,,32,02,,,31,03,53,198,34,04,,,33*5F
$BDGSV,3,2,12,06,62,351,37,07,28,168,34,08,27,194,31,09,49,302,31*6A
$BDGSV,3,3,12,10,11,189,28,13,42,222,37,14,59,082,40,16,60,338,39*66
$GNRMC,073530.000,A,3019.05243,N,12003.51378,E,0.00,0.00,291019,,,A*73
$GNVTG,0.00,T,,M,0.00,N,0.00,K,A*23
$GNZDA,073530.000,29,10,2019,00,00*4A
$GPTXT,01,01,01,ANTENNA OK*35
$GNGGA,073531.000,3019.05242,N,12003.51378,E,1,21,0.8,32.9,M,0.0,M,,*40
$GNGLL,3019.05242,N,12003.51378,E,073531.000,A,A*46
$GPGSA,A,3,10,12,15,20,21,24,25,32,33,34,35,36,1.4,0.8,1.1*3C
$BDGSA,A,3,03,06,07,08,09,10,13,14,16,,,,1.4,0.8,1.1*2C
$GPGSV,3,1,12,10,44,322,33,12,30,121,34,15,30,069,34,20,76,321,31*71
$GPGSV,3,2,12,21,38,224,29,24,61,040,38,25,17,166,31,32,23,285,29*74
$GPGSV,3,3,12,33,69,095,31,34,60,127,32,35,07,162,22,36,54,166,25*79
$BDGSV,3,1,12,01,,,32,02,,,31,03,53,198,34,04,,,33*5F
$BDGSV,3,2,12,06,62,351,37,07,28,168,34,08,27,194,32,09,49,302,31*69
$BDGSV,3,3,12,10,11,189,28,13,42,222,37,14,59,082,40,16,60,338,39*66
$GNRMC,073531.000,A,3019.05242,N,12003.51378,E,0.00,0.00,291019,,,A*73
$GNVTG,0.00,T,,M,0.00,N,0.00,K,A*23
$GNZDA,073531.000,29,10,2019,00,00*4B
$GPTXT,01,01,01,ANTENNA OK*35
$GNGGA,073532.000,3019.05242,N,12003.51378,E,1,21,0.8,32.9,M,0.0,M,,*43
$GNGLL,3019.05242,N,12003.51378,E,073532.000,A,A*45
$GPGSA,A,3,10,12,15,20,21,24,25,32,33,34,35,36,1.4,0.8,1.1*3C
$BDGSA,A,3,03,06,07,08,09,10,13,14,16,,,,1.4,0.8,1.1*2C
$GPGSV,3,1,12,10,44,322,33,12,30,121,34,15,30,069,34,20,76,321,31*71
$GPGSV,3,2,12,21,38,224,29,24,61,040,38,25,17,166,31,32,23,285,29*74
$GPGSV,3,3,12,33,69,095,31,34,60,127,32,35,07,162,22,36,54,166,25*79
$BDGSV,3,1,12,01,,,32,02,,,31,03,53,198,34,04,,,33*5F
$BDGSV,3,2,12,06,62,351,37,07,28,168,34,08,27,194,32,09,49,302,31*69
$BDGSV,3,3,12,10,11,189,28,13,42,222,37,14,59,082,40,16,60,338,39*66
$GNRMC,073532.000,A,3019.05242,N,12003.51378,E,0.00,0.00,291019,,,A*70
$GNVTG,0.00,T,,M,0.00,N,0.00,K,A*23
$GNZDA,073532.000,29,10,2019,00,00*48
$GPTXT,01,01,01,ANTENNA OK*35
$GNGGA,073533.000,3019.05242,N,12003.51378,E,1,21,0.8,32.9,M,0.0,M,,*42
$GNGLL,3019.05242,N,12003.51378,E,073533.000,A,A*44
$GPGSA,A,3,10,12,15,20,21,24,25,32,33,34,35,36,1.4,0.8,1.1*3C
$BDGSA,A,3,03,06,07,08,09,10,13,14,16,,,,1.4,0.8,1.1*2C
$GPGSV,3,1,12,10,44,322,33,12,30,121,33,15,30,069,34,20,76,321,31*76
$GPGSV,3,2,12,21,38,224,29,24,61,040,37,25,17,166,31,32,23,285,28*7A
$GPGSV,3,3,12,33,69,095,31,34,60,127,32,35,07,162,22,36,54,166,25*79
$BDGSV,3,1,12,01,,,32,02,,,31,03,53,198,34,04,,,33*5F
$BDGSV,3,2,12,06,62,351,37,07,28,168,34,08,27,194,32,09,49,302,31*69
$BDGSV,3,3,12,10,11,189,28,13,42,222,37,14,59,082,40,16,60,338,39*66
$GNRMC,073533.000,A,3019.05242,N,12003.51378,E,0.00,0.00,291019,,,A*71
$GNVTG,0.00,T,,M,0.00,N,0.00,K,A*23
$GNZDA,073533.000,29,10,2019,00,00*49
$GPTXT,01,01,01,ANTENNA OK*35
$GNGGA,073534.000,3019.05242,N,12003.51379,E,1,21,0.8,32.9,M,0.0,M,,*44
$GNGLL,3019.05242,N,12003.51379,E,073534.000,A,A*42
$GPGSA,A,3,10,12,15,20,21,24,25,32,33,34,35,36,1.4,0.8,1.1*3C
$BDGSA,A,3,03,06,07,08,09,10,13,14,16,,,,1.4,0.8,1.1*2C
$GPGSV,3,1,12,10,44,322,33,12,30,121,33,15,30,069,34,20,76,321,31*76
$GPGSV,3,2,12,21,38,224,29,24,61,040,37,25,17,166,31,32,23,285,28*7A
$GPGSV,3,3,12,33,69,095,30,34,60,127,32,35,07,162,22,36,54,166,25*78
$BDGSV,3,1,12,01,,,32,02,,,31,03,53,198,34,04,,,33*5F
$BDGSV,3,2,12,06,62,351,37,07,28,168,33,08,27,194,32,09,49,302,32*6D
$BDGSV,3,3,12,10,11,189,28,13,42,222,37,14,59,082,41,16,60,338,39*67
$GNRMC,073534.000,A,3019.05242,N,12003.51379,E,0.00,0.00,291019,,,A*77
$GNVTG,0.00,T,,M,0.00,N,0.00,K,A*23
$GNZDA,073534.000,29,10,2019,00,00*4E
$GPTXT,01,01,01,ANTENNA OK*35
$GNGGA,073535.000,3019.05242,N,12003.51379,E,1,21,0.8,32.9,M,0.0,M,,*45
$GNGLL,3019.05242,N,12003.51379,E,073535.000,A,A*43
$GPGSA,A,3,10,12,15,20,21,24,25,32,33,34,35,36,1.4,0.8,1.1*3C
$BDGSA,A,3,03,06,07,08,09,10,13,14,16,,,,1.4,0.8,1.1*2C
$GPGSV,3,1,12,10,44,322,33,12,30,121,33,15,30,069,34,20,76,321,31*76
$GPGSV,3,2,12,21,38,224,29,24,61,040,37,25,17,166,31,32,23,285,28*7A
$GPGSV,3,3,12,33,69,096,30,34,60,127,32,35,07,162,22,36,54,166,25*7B
$BDGSV,3,1,12,01,,,32,02,,,31,03,53,198,34,04,,,33*5F
$BDGSV,3,2,12,06,62,351,37,07,28,168,33,08,27,194,32,09,49,302,32*6D
$BDGSV,3,3,12,10,11,189,28,13,42,222,38,14,59,082,41,16,60,338,39*68
$GNRMC,073535.000,A,3019.05242,N,12003.51379,E,0.00,0.00,291019,,,A*76
$GNVTG,0.00,T,,M,0.00,N,0.00,K,A*23
$GNZDA,073535.000,29,10,2019,00,00*4F
$GPTXT,01,01,01,ANTENNA OK*35
$GNGGA,073536.000,3019.05242,N,12003.51379,E,1,21,0.8,32.9,M,0.0,M,,*46
$GNGLL,3019.05242,N,12003.51379,E,073536.000,A,A*40
$GPGSA,A,3,10,12,15,20,21,24,25,32,33,34,35,36,1.4,0.8,1.1*3C
$BDGSA,A,3,03,06,07,08,09,10,13,14,16,,,,1.4,0.8,1.1*2C
$GPGSV,3,1,12,10,44,322,34,12,30,121,33,15,30,069,34,20,76,321,31*71
$GPGSV,3,2,12,21,38,224,29,24,61,040,37,25,17,166,31,32,23,285,28*7A
$GPGSV,3,3,12,33,69,096,30,34,60,127,32,35,07,162,22,36,54,166,25*7B
$BDGSV,3,1,12,01,,,32,02,,,32,03,53,198,34,04,,,33*5C
$BDGSV,3,2,12,06,62,351,37,07,28,168,35,08,27,194,32,09,49,302,32*6B
$BDGSV,3,3,12,10,11,189,28,13,42,222,38,14,59,082,41,16,60,338,39*68
$GNRMC,073536.000,A,3019.05242,N,12003.51379,E,0.00,0.00,291019,,,A*75
$GNVTG,0.00,T,,M,0.00,N,0.00,K,A*23
$GNZDA,073536.000,29,10,2019,00,00*4C
$GPTXT,01,01,01,ANTENNA OK*35
$GNGGA,073537.000,3019.05242,N,12003.51379,E,1,21,0.8,32.9,M,0.0,M,,*47
$GNGLL,3019.05242,N,12003.51379,E,073537.000,A,A*41
$GPGSA,A,3,10,12,15,20,21,24,25,32,33,34,35,36,1.4,0.8,1.1*3C
$BDGSA,A,3,03,06,07,08,09,10,13,14,16,,,,1.4,0.8,1.1*2C
$GPGSV,3,1,12,10,44,322,34,12,30,121,32,15,30,069,34,20,76,321,31*70
$GPGSV,3,2,12,21,38,224,29,24,61,040,38,25,17,166,31,32,23,285,29*74
$GPGSV,3,3,12,33,69,096,31,34,60,127,32,35,07,162,22,36,54,166,25*7A
$BDGSV,4,1,13,01,,,32,02,,,32,03,53,198,34,04,,,33*5A
$BDGSV,4,2,13,05,,,30,06,62,351,37,07,28,168,35,08,27,194,32*5F
$BDGSV,4,3,13,09,49,302,32,10,11,189,28,13,42,222,37,14,59,082,41*66
$BDGSV,4,4,13,16,60,338,39*59
$GNRMC,073537.000,A,3019.05242,N,12003.51379,E,0.00,0.00,291019,,,A*74
$GNVTG,0.00,T,,M,0.00,N,0.00,K,A*23
$GNZDA,073537.000,29,10,2019,00,00*4D
$GPTXT,01,01,01,ANTENNA OK*35
$GNGGA,073538.000,3019.05241,N,12003.51379,E,1,21,0.8,32.9,M,0.0,M,,*4B
$GNGLL,3019.05241,N,12003.51379,E,073538.000,A,A*4D
$GPGSA,A,3,10,12,15,20,21,24,25,32,33,34,35,36,1.4,0.8,1.1*3C
$BDGSA,A,3,03,06,07,08,09,10,13,14,16,,,,1.4,0.8,1.1*2C
$GPGSV,3,1,12,10,44,322,34,12,30,121,32,15,30,069,34,20,76,321,31*70
$GPGSV,3,2,12,21,38,224,29,24,61,040,38,25,17,166,31,32,23,285,29*74
$GPGSV,3,3,12,33,69,096,31,34,60,127,32,35,07,162,22,36,54,166,25*7A
$BDGSV,4,1,13,01,,,32,02,,,32,03,53,198,34,04,,,33*5A
$BDGSV,4,2,13,05,,,30,06,62,351,37,07,28,168,35,08,27,194,32*5F
$BDGSV,4,3,13,09,49,302,32,10,11,189,28,13,42,222,37,14,59,082,41*66
$BDGSV,4,4,13,16,60,338,39*59
$GNRMC,073538.000,A,3019.05241,N,12003.51379,E,0.00,0.00,291019,,,A*78
$GNVTG,0.00,T,,M,0.00,N,0.00,K,A*23
$GNZDA,073538.000,29,10,2019,00,00*42
$GPTXT,01,01,01,ANTENNA OK*35
$GNGGA,073539.000,3019.05241,N,12003.51380,E,1,21,0.8,32.9,M,0.0,M,,*4C
$GNGLL,3019.05241,N,12003.51380,E,073539.000,A,A*4A
$GPGSA,A,3,10,12,15,20,21,24,25,32,33,34,35,36,1.4,0.8,1.1*3C
$BDGSA,A,3,03,06,07,08,09,10,13,14,16,,,,1.4,0.8,1.1*2C
$GPGSV,3,1,12,10,44,322,34,12,30,121,32,15,30,069,34,20,76,321,31*70
$GPGSV,3,2,12,21,38,224,29,24,61,040,38,25,17,166,31,32,23,285,29*74
$GPGSV,3,3,12,33,69,096,31,34,60,127,32,35,07,162,22,36,54,166,25*7A
$BDGSV,4,1,13,01,,,32,02,,,32,03,53,198,34,04,,,33*5A
$BDGSV,4,2,13,05,,,30,06,62,351,37,07,28,168,34,08,27,194,32*5E
$BDGSV,4,3,13,09,49,302,32,10,11,189,28,13,42,222,37,14,59,082,41*66
$BDGSV,4,4,13,16,60,338,39*59
$GNRMC,073539.000,A,3019.05241,N,12003.51380,E,0.00,0.00,291019,,,A*7F
$GNVTG,0.00,T,,M,0.00,N,0.00,K,A*23
$GNZDA,073539.000,29,10,2019,00,00*43
$GPTXT,01,01,01,ANTENNA OK*35
$GNGGA,073540.000,3019.05241,N,12003.51380,E,1,21,0.8,32.9,M,0.0,M,,*42
$GNGLL,3019.05241,N,12003.51380,E,073540.000,A,A*44
$GPGSA,A,3,10,12,15,20,21,24,25,32,33,34,35,36,1.4,0.8,1.1*3C
$BDGSA,A,3,03,06,07,08,09,10,13,14,16,,,,1.4,0.8,1.1*2C
$GPGSV,3,1,12,10,44,322,34,12,30,121,33,15,30,069,35,20,76,321,32*73
$GPGSV,3,2,12,21,38,224,30,24,61,040,40,25,17,166,31,32,23,285,30*7B
$GPGSV,3,3,12,33,69,096,32,34,60,127,32,35,07,162,23,36,54,166,27*7A
$BDGSV,4,1,13,01,,,33,02,,,32,03,53,198,34,04,,,33*5B
$BDGSV,4,2,13,05,,,30,06,62,351,37,07,28,168,34,08,27,194,32*5E
$BDGSV,4,3,13,09,49,302,32,10,11,189,29,13,42,222,37,14,59,082,41*67
$BDGSV,4,4,13,16,60,338,39*59
$GNRMC,073540.000,A,3019.05241,N,12003.51380,E,0.00,0.00,291019,,,A*71
$GNVTG,0.00,T,,M,0.00,N,0.00,K,A*23
$GNZDA,073540.000,29,10,2019,00,00*4D
$GPTXT,01,01,01,ANTENNA OK*35
$GNGGA,073541.000,3019.05241,N,12003.51380,E,1,21,0.8,32.9,M,0.0,M,,*43
$GNGLL,3019.05241,N,12003.51380,E,073541.000,A,A*45
$GPGSA,A,3,10,12,15,20,21,24,25,32,33,34,35,36,1.4,0.8,1.1*3C
$BDGSA,A,3,03,06,07,08,09,10,13,14,16,,,,1.4,0.8,1.1*2C
$GPGSV,3,1,12,10,44,322,36,12,31,121,33,15,30,069,35,20,76,321,32*70
$GPGSV,3,2,12,21,38,224,30,24,61,040,40,25,17,166,31,32,23,285,30*7B
$GPGSV,3,3,12,33,69,096,32,34,60,127,32,35,07,162,23,36,54,166,27*7A
$BDGSV,4,1,13,01,,,33,02,,,32,03,53,198,34,04,,,33*5B
$BDGSV,4,2,13,05,,,30,06,62,351,37,07,28,168,34,08,27,194,32*5E
$BDGSV,4,3,13,09,49,302,32,10,11,189,29,13,42,222,37,14,59,082,40*66
$BDGSV,4,4,13,16,60,338,39*59
$GNRMC,073541.000,A,3019.05241,N,12003.51380,E,0.00,0.00,291019,,,A*70
$GNVTG,0.00,T,,M,0.00,N,0.00,K,A*23
$GNZDA,073541.000,29,10,2019,00,00*4C
$GPTXT,01,01,01,ANTENNA OK*35
$GNGGA,073542.000,3019.05241,N,12003.51380,E,1,21,0.8,32.9,M,0.0,M,,*40
$GNGLL,3019.05241,N,12003.51380,E,073542.000,A,A*46
$GPGSA,A,3,10,12,15,20,21,24,25,32,33,34,35,36,1.4,0.8,1.1*3C
$BDGSA,A,3,03,06,07,08,09,10,13,14,16,,,,1.4,0.8,1.1*2C
$GPGSV,3,1,12,10,44,322,36,12,31,121,33,15,30,069,35,20,76,321,32*70
$GPGSV,3,2,12,21,38,224,30,24,61,040,39,25,17,166,31,32,23,285,30*75
$GPGSV,3,3,12,33,69,096,32,34,60,127,32,35,07,162,26,36,54,166,27*7F
$BDGSV,4,1,13,01,,,33,02,,,32,03,53,198,34,04,,,33*5B
$BDGSV,4,2,13,05,,,30,06,62,351,36,07,28,168,34,08,27,194,32*5F
$BDGSV,4,3,13,09,49,302,32,10,11,189,29,13,42,222,37,14,59,082,40*66
$BDGSV,4,4,13,16,60,338,38*58
$GNRMC,073542.000,A,3019.05241,N,12003.51380,E,0.00,0.00,291019,,,A*73
$GNVTG,0.00,T,,M,0.00,N,0.00,K,A*23
$GNZDA,073542.000,29,10,2019,00,00*4F
$GPTXT,01,01,01,ANTENNA OK*35
$GNGGA,073543.000,3019.05241,N,12003.51379,E,1,21,0.8,32.9,M,0.0,M,,*47
$GNGLL,3019.05241,N,12003.51379,E,073543.000,A,A*41
$GPGSA,A,3,10,12,15,20,21,24,25,32,33,34,35,36,1.4,0.8,1.1*3C
$BDGSA,A,3,03,06,07,08,09,10,13,14,16,,,,1.4,0.8,1.1*2C
$GPGSV,3,1,12,10,44,322,35,12,31,121,33,15,30,069,35,20,76,321,32*73
$GPGSV,3,2,12,21,38,224,30,24,61,040,39,25,17,166,31,32,23,285,30*75
$GPGSV,3,3,12,33,69,096,32,34,60,127,32,35,07,162,26,36,54,166,27*7F
$BDGSV,4,1,13,01,,,33,02,,,32,03,53,198,34,04,,,33*5B
$BDGSV,4,2,13,05,,,30,06,62,351,36,07,28,168,34,08,27,194,32*5F
$BDGSV,4,3,13,09,49,302,31,10,11,189,27,13,42,222,36,14,59,082,39*64
$BDGSV,4,4,13,16,60,338,38*58
$G