=================   2019-09-30   =================
07:16:42  *3E
$BDGSA,A,3,03,04,06,08,09,13,14,16,,,,,1.3,0.7,1.1*26
$GPGSV,3,1,12,02,06,147,12,05,26,085,32,13,3
07:16:42  9,039,35,15,70,359,39*72
$GPGSV,3,2,12,20,24,26,085,32,13,3
07:16:42  304,36,21,46,311,42,24,43,167,34,29,24,221,38*78
$GPGSV,3,2,12,20,24,
07:16:42  ,3,3,12,33,63,060,39,34,30,132,29,35,15,167,22,29
07:16:42  36,52,156,33*7E
$BDGSV,3,1,10,01,,,32,02,,,29,03,54,187,
07:16:42  33,04,29,117,32*67
$BDGSV,3,2,10,06,75,314,34,,,32,02,,,29,03,54,187,
07:16:42  08,59,160,37,09,57,255,33,13,80,223,37*6E
$BDGSV,3,3,10,34,
07:16:42  ,14,31,063,36,16,71,289,37*68
$GNRMC,071642.0023
07:16:42  0,A,3029.51234,N,11409.06152,E,0.00,128.02,300937
07:16:42  19,,,A*79
$GNVTG,128.02,T,,M,0.00,N,0.00,K,A*2A
$GNZDA
07:16:42  ,071642.000,30,09,2019,00,00*4E
$GPTXT,01,01,01,ANTENNA 19
07:16:42  OK*35

07:16:42  $00
07:16:42  GNGGA,071643.000,3029.51234,N,11409.06152,E,1,1,01,01,ANTENNA 
07:16:42  20,0.7,25.9,M,0.0,M,,*4A
$GNGLL,3029.51234,N,1.00
07:16:42  1409.06152,E,071643.000,A,A*44
$GPGSA,A,3,02,05,13,15,20,21,24,29,33,34,35,36,1.3,0.7,1.1*3E
$BDGSA,A,3,03,04,06,08,09,1
07:16:42  3,14,16,,,,,1.3,0.7,1.1*26
$GPGSV,3,1,12,02,065
07:16:43  ,147,12,05,26,085,31,13,39,039,35,15,70,359,39*71
$GPGS
07:16:43  V,3,2,12,20,24,304,37,21,46,311,41,24,43,167,34,15
07:16:43  29,24,221,37*75
$GPGSV,3,3,12,33,63,060,39,34,30,132,29.1
07:16:43  ,35,15,167,22,36,52,156,33*7E
$BDGSV,3,1,10,03,63,060,39,34,30,132,29
07:16:43  1,,,32,02,,,29,03,54,187,33,04,29,117,32*67
$BDGSV,3,2,BDGSV,3,1,10,0
07:16:43  10,06,75,314,33,08,59,160,36,09,57,255,33,13,80,
$BDGSV,3,2,
07:16:43  223,37*68
$BDGSV,3,3,10,14,31,063,36,16,71,289,37*68
$
$BDGSA,A,3,03,04,06,08,09,1
07:16:43  GNRMC,071643.000,A,3029.51234,N,11409.06152,E,05
07:16:43  .00,128.02,300919,,,A*78
$GNVTG,128.02,T,,M,0.6
07:16:43  00,N,0.00,K,A*2A
$GNZDA,071643.000,30,09,2019,00,00*4FVTG,128.02,T,,M,0.
07:16:43  
$GPTXT,01,01,01,ANTENNA OK*35

07:16:43  $GNGGA,071644.000,3029.51234,N,11409.06153,E,1,20,0.7,25.9,M,0.
07:16:43  0,M,,*4C
$GNGLL,3029.51234,N,11409.06153,E,071GNGGA,071644.000,3029.51234,N,11409.06153,E,1,20,0.7,25.9,M,0.
07:16:43  644.000,A,A*42
$GPGSA,A,3,02,05,13,15,20,21,24,29,33,3411409.06153,E,071
07:16:43  ,35,36,1.3,0.7,1.1*3E
$BDGSA,A,3,03,04,06,08,0,33,34
07:16:43  9,13,14,16,,,,,1.3,0.7,1.1*26
$GPGSV,3,1,12,02,06,147,106,08,0
07:16:44  2,05,26,085,31,13,39,039,35,15,70,359,39*71
$G06,147,1
07:16:44  PGSV,3,2,12,20,24,304,37,21,46,311,41,24,43,167,35
07:16:44  34,29,24,221,37*75
$GPGSV,3,3,12,33,63,060,39,34,30,132,071
07:16:44  ,29,35,15,167,22,36,52,156,33*7E
$BDGSV,3,1,12,33,63,060,39,34,30,132
07:16:44  0,01,,,32,02,,,29,03,54,187,33,04,29,117,32*67
$BDGSV,3
$BDGSV,3,1,1
07:16:44  ,2,10,06,75,314,33,08,59,160,36,09,57,255,33,13,80,223,38V,3
07:16:44  *67
$BDGSV,3,3,10,14,31,063,36,16,71,289,38*67GGA,071644.000,3029.51234,N,11409.06153,E,1,20,0.7,25.9,M,0.
07:16:44  
$GNRMC,071644.000,A,3029.51234,N,11409.06153,0.7,25.9,M,0.
07:16:44  E,0.00,128.02,300919,,,A*7E
$GNVTG,128.02,T,,M,0.00,N,0.
07:16:44  00,K,A*2A
$GNZDA,071644.000,30,09,2019,00,00*$GNVTG,128.02,T,,M,0.00,N,0.
07:16:44  48
$GPTXT,01,01,01,ANTENNA OK*35
,00*
07:16:44  $GNGGA,071645.000,3029.51233,N,11409.06153,E,1,20,0.7,25.9,M,0.0,M,,*4A
$GNGLL,3029.51233,N,11409.06153,E,0716
07:16:44  45.000,A,A*44
$GPGSA,A,3,02,05,13,15,20,21,24,29,33,34,1233
07:16:44  35,36,1.3,0.7,1.1*3E
$BDGSA,A,3,03,04,06,08,0933,34,
07:16:44  ,13,14,16,,,,,1.3,0.7,1.1*26
$GPGSV,3,1,12,02,06,147,12,,08,09
07:16:45  05,26,085,31,13,39,039,36,15,70,359,31,12,02,06,147,12,
07:16:45  9*72
$GPGSV,3,2,12,20,24,304,37,21,46,311,41,24,43,167,0.7
07:16:45  34,29,24,221,37*75
$GPGSV,3,3,12,33,63,060,39,34,30,132,41,24,43,167,
07:16:45  ,29,35,15,167,22,36,52,156,33*7E
$BDGSV,3,1,10,33,63,060,39,34,30,132
07:16:45  01,,,32,02,,,29,03,54,187,33,04,29,117,32*67
$BDGSV,3,2$BDGSV,3,1,10,
07:16:45  ,10,06,75,314,33,08,59,160,37,09,57,255,33,13,87
$BDGSV,3,2
07:16:45  0,223,38*66
$BDGSV,3,3,10,14,31,063,36,16,71,232
07:16:45  89,38*67
$GNRMC,071645.000,A,3029.51233,N,11409.06153,E063,36,16,71,2
07:16:45  ,0.00,128.02,300919,,,A*78
$GNVTG,128.02,T,,M,,36,16,71,2
07:16:45  0.00,N,0.00,K,A*2A
$GNZDA,071645.000,30,09,2019,00,00*49NVTG,128.02,T,,M,
07:16:45  
$GPTXT,01,01,01,ANTENNA OK*35
,24,43,167,
07:16:45  $GNGGA,071646.000,3029.51234,N,11409.06152,E,1,20,0.7,25.9,M,0.0,M,,*4F
$GNGLL,3029.51234,N,11409.06152,E,0
07:16:45  71646.000,A,A*41
$GPGSA,A,3,02,05,13,15,20,21,24,29,33,01
07:16:45  34,35,36,1.3,0.7,1.1*3E
$BDGSA,A,3,03,04,06,08,9,33,
07:16:45  09,13,14,16,,,,,1.3,0.7,1.1*26
$GPGSV,3,1,12,,A,3,03,04,06,08,
07:16:46  02,06,147,12,05,26,085,31,13,39,039,36,15,70,359,39*72
A,3,03,04,06,08,
07:16:46  $GPGSV,3,2,12,20,24,304,37,21,46,311,41,24,43,161646.000
07:16:46  7,34,29,24,221,37*75
$GPGSV,3,3,12,33,63,060,39,34,30,111,41,24,43,16
07:16:46  32,29,35,15,167,22,36,52,156,33*7E
$BDGSV,3,1,12,33,63,060,39,34,30,1
07:16:46  10,01,,,32,02,,,29,03,54,187,33,04,29,117,32*67
$BDGSV,3
$BDGSV,3,1,
07:16:46  ,2,10,06,75,314,33,08,59,160,37,09,57,255,33,12
07:16:46  3,80,223,37*69
$BDGSV,3,3,10,14,31,063,36,16,71,289,38*24,43,16
07:16:46  67
$GNRMC,071646.000,A,3029.51234,N,11409.061531,063,36,16,71,289,38*
07:16:46  2,E,0.00,128.02,300919,,,A*7D
$GNVTG,128.02,T,,63,36,16,71,289,38*
07:16:46  M,0.00,N,0.00,K,A*2A
$GNZDA,071646.000,30,09,2019,00,00
$GNVTG,128.02,T,,
07:16:46  *4A
$GPTXT,01,01,01,ANTENNA OK*35
,00
07:16:46  $GNGGA,071647.000,30293,36,16,71,289,38*
07:16:46  .51234,N,11409.06153,E,1,20,0.7,25.9,M,0.0,M,,*4F
$GNGL71647.000,3029
07:16:46  L,3029.51234,N,11409.06153,E,071647.000,A,A*41.7
07:16:46  
$GPGSA,A,3,02,05,13,15,20,21,24,29,33,34,35,36,71,289,38*
07:16:46  ,1.3,0.7,1.1*3E
$BDGSA,A,3,03,04,06,08,09,13,14,16,,,,,,289,38*
07:16:46  1.3,0.7,1.1*26
$GPGSV,3,1,12,02,06,147,12,05,209,13,14,16,,,,,
07:16:47  6,085,32,13,39,039,35,15,70,359,39*72
$GPGSV,3,2,12,20,2,13,14,16,,,,,
07:16:47  4,304,37,21,46,311,41,24,43,167,33,29,24,221,39
07:16:47  6*73
$GPGSV,3,3,12,33,63,060,39,34,30,132,29,34,43,16
07:16:47  5,15,167,22,36,52,156,31*7C
$BDGSV,3,1,10,01,,,32,02,,,34,30,132,29,3
07:16:47  29,03,54,187,33,04,29,117,32*67
$BDGSV,3,2,10,0V,3,1,10,01,,,32,02,,,
07:16:47  6,75,314,33,08,59,160,36,09,57,255,33,13,80,223,37*68
$10,0
07:16:47  BDGSV,3,3,10,14,31,063,35,16,71,289,38*64
$GN55
07:16:47  RMC,071647.000,A,3029.51234,N,11409.06153,E,0.00,128.02,323
07:16:47  00919,,,A*7D
$GNVTG,128.02,T,,M,0.00,N,0.00,K,29,3
07:16:47  A*2A
$GNZDA,071647.000,30,09,2019,00,00*4B
$GPTXT,01,01,01,ANTENNA OK*35
,3
07:16:47  $GNGGA,071648.000,3029.51234,N,11409.06153,E,1,20,0.7,25.9,M,0.0,M,,*40
$GNGLL,3029.51234,N,11409.06152,E,0
07:16:47  029.51234,N,11409.06153,E,071648.000,A,A*4E
$GPGSA,A,3,019
07:16:47  02,05,13,15,20,21,24,29,33,34,35,36,1.3,0.7,1.1*,A,3,
07:16:47  3E
$BDGSA,A,3,03,04,06,08,09,13,14,16,,,,,1.335
$GNGGA
07:16:47  ,0.7,1.1*26
$GPGSV,3,1,12,02,06,147,12,05,26,085,32,13,,,,,1.3
07:16:48  39,039,35,15,70,359,39*72
$GPGSV,3,2,12,20,24,5,32,13,
07:16:48  304,37,21,46,311,41,24,43,167,33,29,24,221,36*73
$GPGSV,3,2,12,20,24,
07:16:48  3,3,12,33,63,060,39,34,30,132,29,35,15,167,22,39
07:16:48  6,52,156,31*7C
$BDGSV,3,1,10,01,,,32,02,,,29,03,54,187,GNGGA
07:16:48  33,04,29,117,32*67
$BDGSV,3,2,10,06,75,314,33,,,32,02,,,29,03,54,187,
07:16:48  ,08,59,160,36,09,57,255,33,13,80,223,35*6A
$BDGSV,3,3,10,33
07:16:48  ,14,31,063,35,16,71,289,38*64
$GNRMC,071648.0023
07:16:48  0,A,3029.51234,N,11409.06153,E,0.00,128.02,300935
07:16:48  19,,,A*72
$GNVTG,128.02,T,,M,0.00,N,0.00,K,A*2A
$GNZDA,48.000
07:16:48  071648.000,30,09,2019,00,00*44
$GPTXT,01,01,028.02
07:16:48  1,ANTENNA OK*35

07:16:48  $GNGGA,0716TXT,01,01,0
07:16:48  49.000,3029.51235,N,11409.06152,E,1,19,0.7,25.2
07:16:48  9,M,0.0,M,,*4B
$GNGLL,3029.51235,N,11409.06152
07:16:48  ,E,071649.000,A,A*4F
$GPGSA,A,3,05,13,15,20,21,24,29,33235,N,11409.06152
07:16:48  ,34,35,36,,1.4,0.7,1.2*38
$BDGSA,A,3,03,04,06,029,33
07:16:48  8,09,13,14,16,,,,,1.4,0.7,1.2*22
$GPGSV,3,1,12,02,06,14,06,0
07:16:49  7,10,05,26,085,33,13,39,039,34,15,70,359,39*70,02,06,14
07:16:49  
$GPGSV,3,2,12,20,24,304,37,21,46,311,41,24,43,167,31,200
07:16:49  9,24,221,36*71
$GPGSV,3,3,12,33,63,060,39,34,30,311,41,24,43,167,31,2
07:16:49  ,132,29,35,15,167,22,36,52,156,31*7C
$BDGSV,3,1,10,01,,3,060,39,34,30
07:16:49  ,32,02,,,29,03,54,187,33,04,29,117,30*65
$BDGS
07:16:49  V,3,2,10,06,75,314,33,08,59,160,36,09,57,255,33
07:16:49  ,13,80,223,35*6A
$BDGSV,3,3,10,14,31,063,35,16,71,289,31,24,43,167,31,2
07:16:49  8*64
$GNRMC,071649.000,A,3029.51235,N,11409.064,31,063,35,16,71,289,3
07:16:49  152,E,0.00,128.02,300919,,,A*73
$GNVTG,128.02,T,,M,0.00,N,0.00,K,A*2A
$GNZDA,071649.000,30,09,2019,00,00*45
$GPTXT,01,025.9
07:16:49  1,01,ANTENNA OK*35
N
07:16:49  $GNGGA,071650.000,3029.51236,N,11409.06152,E,1,19,0.7,25.9,M,0..00
07:16:49  0,M,,*40
$GNGLL,3029.51236,N,11409.06152,E,071A
$GNZDA
07:16:49  650.000,A,A*44
$GPGSA,A,3,05,13,15,20,21,24,29,33,34,35,1409.06152,E,071
07:16:49  36,,1.4,0.7,1.2*38
$BDGSA,A,3,03,04,06,08,09,,34,35,
07:16:49  13,14,16,,,,,1.4,0.7,1.2*22
$GPGSV,3,1,12,02,06,147,10,8,09,
07:16:50  05,26,085,33,13,39,039,34,15,70,359,39*70
$GPGS147,10,
07:16:50  V,3,2,12,20,24,304,37,21,46,311,41,24,43,167,31,29,24,229
07:16:50  1,36*71
$GPGSV,3,3,12,33,63,060,39,34,30,132,271
07:16:50  9,35,15,167,22,36,52,156,31*7C
$BDGSV,3,1,10,33,63,060,39,34,30,132,2
07:16:50  01,,,32,02,,,29,03,54,187,33,04,29,117,30*65
$BDGSV,3,2,BDGSV,3,1,10,
07:16:50  10,06,75,314,33,08,59,160,36,09,57,255,33,13,80
$BDGSV,3,2,
07:16:50  ,223,35*6A
$BDGSV,3,3,10,14,31,063,35,16,71,289,38*64
GNZDA
07:16:50  $GNRMC,071650.000,A,3029.51236,N,11409.06152,E,00
07:16:50  .00,128.02,300919,,,A*78
$GNVTG,128.02,T,,M,035
07:16:50  .00,N,0.00,K,A*2A
$GNZDA,071650.000,30,09,2019,00,00*4DNVTG,128.02,T,,M,0
07:16:50  
$GPTXT,01,01,01,ANTENNA OK*35

07:16:50  $GNGGA,07MC,071650.000,A,3029.51236,N,11409.06152,E,0
07:16:50  1651.000,3029.51236,N,11409.06152,E,1,19,0.7,25
07:16:50  .9,M,0.0,M,,*41
$GNGLL,3029.51236,N,11409.0615K
07:16:50  2,E,071651.000,A,A*45
$GPGSA,A,3,05,13,15,20,21,24,29,33236,N,11409.0615
07:16:50  ,34,35,36,,1.4,0.7,1.2*38
$BDGSA,A,3,03,04,064,29,33
07:16:50  ,08,09,13,14,16,,,,,1.4,0.7,1.2*22
$GPGSV,3,1,12,02,06,04,06
07:16:51  147,10,05,26,085,33,13,39,039,34,15,70,SV,3,1,12,02,06,
07:16:51  359,39*70
$GPGSV,3,2,12,20,24,304,37,21,46,311,40,24,43,07
07:16:51  ,167,31,29,24,221,36*70
$GPGSV,3,3,12,33,63,060,39,34,36,311,40,24,43
07:16:51  0,132,29,35,15,167,22,36,52,156,31*7C
$BDGSV,3,3,12,33,63,060,39,34,3
07:16:51  3,1,10,01,,,32,02,,,29,03,54,187,33,04,29,117,30*65
$BDG1
07:16:51  SV,3,2,10,06,75,314,33,08,59,160,35,09,57,255,37
07:16:51  3,13,80,223,36*6A
$BDGSV,3,3,10,14,31,063,35,16,71,289,40,24,43
07:16:51  39*65
$GNRMC,071651.000,A,3029.51236,N,11409.064,31,063,35,16,71,289,
07:16:51  152,E,0.00,128.02,300919,,,A*79
$GNVTG,128.02,T,,M,0.00,N,0.00,K,A*2A
$GNZDA,071651.000,30,09,2019,00,00*4C
$GPTXT,01,
07:16:51  01,01,ANTENNA OK*35
N
07:16:51  $GNGGA,071652.000,3029.51237,N,11409.06151,E,1,19,0.7,25.9,M,0.0,M,,*40
$G
07:16:51  NGLL,3029.51237,N,11409.06151,E,071652.000,A,A
07:16:51  *44
$GPGSA,A,3,05,13,15,20,21,24,29,33,34,35,3
07:16:51  6,,1.4,0.7,1.2*38
$BDGSA,A,3,03,04,06,08,09,13,14,16,,,,
07:16:51  ,1.4,0.7,1.2*22
$GPGSV,3,1,12,02,06,147,10,05,9,13,14,16,,,,
07:16:52  26,085,33,13,39,039,34,15,70,359,39*70
$GPGSV,3,2,12,20,13,14,16,,,,
07:16:52  ,24,304,37,21,46,311,40,24,43,167,31,29,24,221
07:16:52  ,36*70
$GPGSV,3,3,12,33,63,060,39,34,30,132,29,35,15,167
07:16:52  ,21,36,52,156,31*7F
$BDGSV,3,1,10,01,,,32,02,,,34,30,132,29,35,15,167
07:16:52  ,29,03,54,187,33,04,29,117,30*65
$BDGSV,3,2,10,06,75,314,01,,,32,02,,
07:16:52  ,33,08,59,160,35,09,57,255,33,13,80,223,36*6A
,10,06,75,314
07:16:52  $BDGSV,3,3,10,14,31,063,35,16,71,289,39*65
$GNRMC,07165.000
07:16:52  2.000,A,3029.51237,N,11409.06151,E,0.00,128.02
07:16:52  ,300919,,,A*78
$GNVTG,128.02,T,,M,0.00,N,0.00,K
07:16:52  ,A*2A
$GNZDA,071652.000,30,09,2019,00,00*4F
$G,128.02,T,,M,0.00,N,0.00,K
07:16:52  GPTXT,01,01,01,ANTENNA OK*35
K
07:16:52  $GNGGA,071653.000,302.000
07:16:52  29.51238,N,11409.06151,E,1,19,0.7,25.9,M,0.0,M,,00
07:16:52  *4E
$GNGLL,3029.51238,N,11409.06151,E,071653.$GNRMC,07165
07:16:52  000,A,A*4A
$GPGSA,A,3,05,13,15,20,21,24,29,33,34,35,36,9.06151,E,071653.
07:16:52  ,1.4,0.7,1.2*38
$BDGSA,A,3,03,04,06,08,09,13,135,36,
07:16:52  4,16,,,,,1.4,0.7,1.2*22
$GPGSV,3,1,12,02,06,147,10,05,2613,1
07:16:53  ,085,33,13,39,039,34,15,70,359,39*70
$GPGSV,3,10,05,26
07:16:53  2,12,20,24,304,38,21,46,311,40,24,43,167,31,29,24,221,36
07:16:53  *7F
$GPGSV,3,3,12,33,63,060,38,34,30,132,29,353.
07:16:53  5,15,167,21,36,52,156,31*7E
$BDGSV,3,1,10,01,,,32,02,,,24,30,132,29,3
07:16:53  9,03,54,187,33,04,29,117,30*65
$BDGSV,3,2,10,0V,3,1,10,01,,,32,02,,,2
07:16:53  6,75,314,33,08,59,160,35,09,57,255,33,13,80,223,GSV,3,2,10,0
07:16:53  36*6A
$BDGSV,3,3,10,14,31,063,35,16,71,289,38*64
$GNRMC,07165
07:16:53  C,071653.000,A,3029.51238,N,11409.06151,E,0.003
07:16:53  ,128.02,300919,,,A*76
$GNVTG,128.02,T,,M,0.00,N,0.00,K,A*2A
$GNZDA,071653.000,30,09,2019,00,00*4E
$GPTXT,01,01,01,ANTENNM
07:16:53  A OK*35
N
07:16:53  $GNGGA,071654.000,3029.51237,N,11409.06151,E,1,19,0.7,25.9,M,0.0,M,,*46
$GNGLL,3029.51A
07:16:53  237,N,11409.06151,E,071654.000,A,A*42
$GPGSA,A,11409.06151
07:16:53  3,05,13,15,20,21,24,29,33,34,35,36,,1.4,0.7,1.2*38
$BDG09.06151
07:16:53  SA,A,3,03,04,06,08,09,13,14,16,,,,,1.4,0.7,1.2*2
07:16:53  2
$GPGSV,3,1,12,02,06,147,10,05,26,085,33,13,
07:16:54  39,039,34,15,70,359,39*70
$GPGSV,3,2,12,20,24,5,33,13,
07:16:54  304,38,21,46,311,40,24,43,167,31,29,24,221,36*7F
$GPGSV,3,2,12,20,24,
07:16:54  ,3,3,12,33,63,060,38,34,30,132,29,35,15,167,21,36,52,156,36
07:16:54  31*7E
$BDGSV,3,1,10,01,,,32,02,,,29,03,54,187,,3029.51
07:16:54  33,04,29,117,30*65
$BDGSV,3,2,10,06,75,314,33,08,59,160,29,03,54,187,
07:16:54  ,35,09,57,255,33,13,80,223,35*69
$BDGSV,3,3,14,33,08,59,160
07:16:54  0,14,31,063,35,16,71,289,38*64
$GNRMC,071654.000,A,3029.
$BDGSV,3,3,1
07:16:54  51237,N,11409.06151,E,0.00,128.02,300919,,,A*7EDGSV,3,3,1
07:16:54  
$GNVTG,128.02,T,,M,0.00,N,0.00,K,A*2A
$GNZDA,071654.000
07:16:54  00,30,09,2019,00,00*49
$GPTXT,01,01,01,ANTENNA 19
07:16:54  OK*35

07:16:54  $GNGGA,
$GPTXT,01,01,01,ANTENNA 
07:16:54  071655.000,3029.51237,N,11409.06151,E,1,19,0.7,,ANTENNA 
07:16:54  25.9,M,0.0,M,,*47
$GNGLL,3029.51237,N,11409.00.00
07:16:54  6151,E,071655.000,A,A*43
$GPGSA,A,3,05,13,15,2GNGLL,3029.51237,N,11409.0
07:16:54  0,21,24,29,33,34,35,36,,1.4,0.7,1.2*38
$BDGSA,A,3,03,04,L,3029.51237,N,11409.0
07:16:54  06,08,09,13,14,16,,,,,1.4,0.7,1.2*22
$GPGSV,3,1,12,02,03,04,
07:16:54  6,147,10,05,26,085,35,13,39,039,34,15,70,359,39,12,02,0
07:16:55  *76
$GPGSV,3,2,12,20,24,304,38,21,46,311,40,2
$GNZDA,071654.0
07:16:55  4,43,167,31,29,24,221,36*7F
$GPGSV,3,3,12,33,63,060,39,31,46,311,40,2
07:16:55  4,30,132,29,35,15,167,21,36,52,156,31*7F
$BDGSV,3,3,12,33,63,060,39,3
07:16:55  V,3,1,10,01,,,32,02,,,29,03,54,187,33,04,29,117,30*65
$6
07:16:55  BDGSV,3,2,10,06,75,314,33,08,59,160,35,09,57,255117
07:16:55  ,33,13,80,223,37*6B
$BDGSV,3,3,10,14,31,063,39,3
07:16:55  5,16,71,289,38*64
$GNRMC,071655.000,A,3029.51237,N,114010,14,31,063,3
07:16:55  9.06151,E,0.00,128.02,300919,,,A*7F
$GNVTG,128.02,T,,M,0.00,N,0.00,K,A*2A
$GNZDA,071655.000,30,09,2019,00,00*48
$GPTXT,01,01,01,ANTENN
07:16:55  1,01,01,ANTENNA OK*35
N
07:16:55  $GNGGA,071656.000,3029.51237,N,11409.06151,E,1,19,0.7,25.9,M,0.0,M,,*44
$GNGL2A
$GNZDA
07:16:55  L,3029.51237,N,11409.06151,E,071656.000,A,A*409.51237
07:16:55  
$GPGSA,A,3,05,13,15,20,21,24,29,33,34,35,36,,1.4,0.7,1.2
07:16:55  *38
$BDGSA,A,3,03,04,06,08,09,13,14,16,,,,,1.4.7,1.2
07:16:55  ,0.7,1.2*22
$GPGSV,3,1,12,02,06,147,10,05,26,3,14,16,,,,,1.4
07:16:56  085,35,13,39,039,34,15,70,359,40*78
$GPGSV,3,2,12,20,24,14,16,,,,,1.4
07:16:56  ,304,38,21,46,311,41,24,43,167,31,29,24,221,36*78
$GPGSV,3,2,12,20,24
07:16:56  E
$GPGSV,3,3,12,33,63,060,39,34,30,132,29,35,15,167,21,655.000
07:16:56  36,52,156,31*7F
$BDGSV,3,1,10,01,,,32,02,,,29,30,132,29,35,15,167,21,
07:16:56  03,54,187,33,04,29,117,30*65
$BDGSV,3,2,10,06,75,314,34,,,32,02,,,29,
07:16:56  08,59,160,36,09,57,255,34,13,80,223,37*68
$BD,06,75,314,34,
07:16:56  GSV,3,3,10,14,31,063,35,16,71,289,39*65
$GNRMC,071656.0223
07:16:56  00,A,3029.51237,N,11409.06151,E,0.00,128.02,300
07:16:56  919,,,A*7C
$GNVTG,128.02,T,,M,0.00,N,0.00,K,A*2A
$GNZDA,21,
07:16:56  ,071656.000,30,09,2019,00,00*4B
$GPTXT,01,01,028.02
07:16:56  1,ANTENNA OK*35

07:16:56  $GN
07:16:56  GGA,071657.000,3029.51237,N,11409.06151,E,1,19,0.7,25.9,300919
07:16:56  M,0.0,M,,*45
$GNGLL,3029.51237,N,11409.06151,K
07:16:56  E,071657.000,A,A*41
$GPGSA,A,3,05,13,15,20,21,,3029.51237,N,11409.06151,
07:16:56  24,29,33,34,35,36,,1.4,0.7,1.2*38
$BDGSA,A,3,03,04,06,089.51237,N,11409.06151,
07:16:56  ,09,13,14,16,,,,,1.4,0.7,1.2*22
$GPGSV,3,1,12,,3,03,04,06,08
07:16:56  02,06,147,10,05,26,085,35,13,39,039,33,15,70,359,40*7F
3,03,04,06,08
07:16:57  $GPGSV,3,2,12,20,24,304,38,21,46,311,41,24,43,ZDA
07:16:57  167,31,29,24,221,36*7E
$GPGSV,3,3,12,33,63,060,39,34,30,311,41,24,43,
07:16:57  132,29,35,15,167,21,36,52,156,31*7F
$BDGSV,3,1,12,33,63,060,39,34,30,
07:16:57  ,10,01,,,32,02,,,29,03,54,187,33,04,29,117,30*62
07:16:57  5
$BDGSV,3,2,10,06,75,314,34,08,59,160,36,09,57,255,34,13,
07:16:57  3,80,223,37*68
$BDGSV,3,3,10,14,31,063,36,16,09,57,255,34,1
07:16:57  71,289,40*68
$GNRMC,071657.000,A,3029.51237,N,11409.061,31,063,36,16,
07:16:57  51,E,0.00,128.02,300919,,,A*7D
$GNVTG,128.02,T,,M,0.00,N,0.00,K,A*2A
$GNZDA,071657.000,30,09,2019,00,00*4A
$GPTXT,0
07:16:57  TXT,01,01,01,ANTENNA OK*35
N
07:16:57  $GNGGA,071658.000,3029.51237,N,11409.06153,E,1,19,0.7,25.9,M,0.0,M,,*48
$G
07:16:57  NGLL,3029.51237,N,11409.06153,E,071658.000,A,A*3029.51237
07:16:57  4C
$GPGSA,A,3,05,13,15,20,21,24,29,33,34,35,36,
07:16:57  ,1.4,0.7,1.2*38
$BDGSA,A,3,03,04,06,08,09,13,14,16,,,,,48
$G
07:16:57  1.4,0.7,1.2*22
$GPGSV,3,1,12,02,06,147,10,05,9,13,14,16,,,,,
07:16:58  26,085,35,13,39,039,33,15,70,359,39*71
$GPGSV,3,2,12,20,13,14,16,,,,,
07:16:58  ,24,304,38,21,46,311,41,24,43,167,31,29,24,221,39
07:16:58  7*7F
$GPGSV,3,3,12,33,63,060,39,34,30,132,29,3
$GNZDA
07:16:58  5,15,167,21,36,52,156,31*7F
$BDGSV,3,1,10,01,,,32,02,,,24,30,132,29,3
07:16:58  9,03,54,187,33,04,29,117,30*65
$BDGSV,3,2,10,SV,3,1,10,01,,,32,02,,,2
07:16:58  06,75,314,34,08,59,160,36,09,57,255,34,13,80,223,37*68
,10,
07:16:58  $BDGSV,3,3,10,14,31,063,36,16,71,289,40*68
$GNDA
07:16:58  RMC,071658.000,A,3029.51237,N,11409.06153,E,0.00,128.02,323
07:16:58  00919,,,A*70
$GNVTG,128.02,T,,M,0.00,N,0.00,K,40
07:16:58  A*2A
$GNZDA,071658.000,30,09,2019,00,00*45
$G,128.02,T,,M,0.00,N,0.00,K,
07:16:58  GPTXT,01,01,01,ANTENNA OK*35
K
07:16:58  $GN
07:16:58  GGA,071659.000,3029.51237,N,11409.06155,E,1,19,08.000
07:16:58  .7,25.9,M,0.0,M,,*4F
$GNGLL,3029.51237,N,1140,N,0.00,K,
07:16:58  9.06155,E,071659.000,A,A*4B
$GPGSA,A,3,05,13,15,20,21,23029.51237,N,1140
07:16:58  4,29,33,34,35,36,,1.4,0.7,1.2*38
$BDGSA,A,3,030,21,2
07:16:58  ,04,06,08,09,13,14,16,,,,,1.4,0.7,1.2*22
$GPGSV$BDGSA,A,3,03
07:16:58  ,3,1,12,02,06,147,10,05,26,085,35,13,39,039,34,15,70,359BDGSA,A,3,03
07:16:59  ,39*76
$GPGSV,3,2,12,20,24,304,38,21,46,311,40
07:16:59  1,24,43,167,31,29,24,221,37*7F
$GPGSV,3,3,12,33,63,060,38,21,46,311,4
07:16:59  9,34,30,132,29,35,15,167,21,36,52,156,31*7F
$BPGSV,3,3,12,33,63,060,3
07:16:59  DGSV,3,1,10,01,,,32,02,,,29,03,54,187,33,04,29,117,30*65
07:16:59  
$BDGSV,3,2,10,06,75,314,34,08,59,160,36,09,57,,4
07:16:59  255,34,13,80,223,37*68
$BDGSV,3,3,10,14,31,063,36,16,71,57,
07:16:59  ,289,40*68
$GNRMC,071659.000,A,3029.51237,N,1,3,10,14,31,063,36,16,71
07:16:59  1409.06155,E,0.00,128.02,300919,,,A*77
$GNVTG,128.02,T,,M,0.00,N,0.00,K,A*2A
$GNZDA,071659.000,30,09,2019,00,00
07:16:59  *44
$GPTXT,01,01,01,ANTENNA OK*35
77
$GNVTG
07:16:59  $GNGGA,071700.000,3029.51237,N,11409.06157,E,1,19,0.7,26.0,M,0.0,M,,*19,00,00
07:16:59  4A
$GNGLL,3029.51237,N,11409.06157,E,071700.00019,0.7,26.0,M,0.0,M,,*
07:16:59  ,A,A*44
$GPGSA,A,3,05,13,15,20,21,24,29,33,34,35,36,,1.6157,E,071700.000
07:16:59  4,0.7,1.2*38
$BDGSA,A,3,03,04,06,08,,33,34,35,36,,1.
07:16:59  09,13,14,16,,,,,1.4,0.7,1.2*22
$GPGSV,3,1,12,02,06,147,6,08,
07:17:00  10,05,26,085,36,13,39,039,34,15,70,359,39*75
$GPGSV,3,2,08,
07:17:00  12,20,24,304,38,21,46,311,41,24,43,167,30,29,24
07:17:00  ,221,37*7E
$GPGSV,3,3,12,33,63,060,39,34,30,132,29,35,1000
07:17:00  5,167,21,36,52,156,31*7F
$BDGSV,3,1,10,01,,,32,0,39,34,30,132,29,35,1
07:17:00  02,,,29,03,54,187,33,04,29,117,30*65
$BDGSV,3,2,10,06,7,1,10,01,,,32,
07:17:00  5,314,34,08,59,160,36,09,57,255,34,13,80,223,3SV,3,2,10,06,7
07:17:00  7*68
$BDGSV,3,3,10,14,31,063,36,16,71,289,40*68
$GNRMC0.7,26.0,M,0.0,M,,*
07:17:00  ,071700.000,A,3029.51237,N,11409.06157,E,0.00,123
07:17:00  8.02,300919,,,A*78
$GNVTG,128.02,T,,M,0.00,N,01
07:17:00  .00,K,A*2A
$GNZDA,071700.000,30,09,2019,00,00*49
$GPTXT.02,T,,M,0.00,N,0
07:17:00  ,01,01,01,ANTENNA OK*35
K
07:17:00  $GN
07:17:00  GGA,071701.000,3029.51238,N,11409.06160,E,1,19700.000
07:17:00  ,0.7,26.0,M,0.0,M,,*40
$GNGLL,3029.51238,N,11409.06160,9
07:17:00  E,071701.000,A,A*4E
$GPGSA,A,3,05,13,15,20,21,,3029.51238,N,11409.06160,
07:17:00  24,29,33,34,35,36,,1.4,0.7,1.2*38
$BDGSA,A,3,03,04,06,089.51238,N,11409.06160,
07:17:00  ,09,13,14,16,,,,,1.4,0.7,1.2*22
$GPGSV,3,1,12,,3,03,04,06,08
07:17:00  02,06,147,07,05,26,085,36,13,39,039,34,15,70,3V,3,1,12,
07:17:01  59,40*7D
$GPGSV,3,2,12,20,24,304,38,21,46,311,41,24,43,NRMC
07:17:01  167,30,29,24,221,37*7E
$GPGSV,3,3,12,33,63,060,38,21,46,311,41,24,43,
07:17:01  39,34,30,132,29,35,15,167,21,36,52,156,31*7F
$BDGSV,3,1,12,33,63,060,
07:17:01  ,10,01,,,32,02,,,30,03,54,187,33,04,29,117,30*6D
$BDGSV7F
$BDGSV,3,1
07:17:01  ,3,2,10,06,75,314,34,08,59,160,36,09,57,255,34,10
07:17:01  3,80,223,37*68
$BDGSV,3,3,10,14,31,063,36,16,46,311,41,24,43,
07:17:01  71,289,40*68
$GNRMC,071701.000,A,3029.51238,N,11409.061,31,063,36,16,
07:17:01  60,E,0.00,128.02,300919,,,A*72
$GNVTG,128.02,T,,M,0.00,N,0.00,K,A*2A
$GNZDA,071701.000,30,09,2019,00,00*48
$GP
07:17:01  TXT,01,01,01,ANTENNA OK*35
N
07:17:01  $GNGGA,071702.000,3029.51238,N,11409.06162,E,1,19,0.7,26.0,M,0.0,M
07:17:01  ,,*41
$GNGLL,3029.51238,N,11409.06162,E,071702$GNZDA
07:17:01  .000,A,A*4F
$GPGSA,A,3,05,13,15,20,21,24,29,33238,N,11409.06162,E,071702
07:17:01  ,34,35,36,,1.4,0.7,1.2*38
$BDGSA,A,3,03,04,06,08,09,13,1N,11409.06162,E,071702
07:17:01  4,16,,,,,1.4,0.7,1.2*22
$GPGSV,3,1,12,02,06,14,06,08,09,13,1
07:17:01  47,07,05,26,085,36,13,39,039,34,15,70,359,39*73
$GPGSV,,06,08,09,13,1
07:17:02  3,2,12,20,24,304,39,21,46,311,41,24,43,167,30,29
07:17:02  ,24,221,37*7F
$GPGSV,3,3,12,33,63,060,39,34,3062,E,071702
07:17:02  ,132,29,35,15,167,21,36,52,156,31*7F
$BDGSV,3,1,10,01,,3,060,39,34,30
07:17:02  ,32,02,,,30,03,54,187,33,04,29,117,30*6D
$BDG1
07:17:02  SV,3,2,10,06,75,314,34,08,59,160,36,09,57,255,34,13,80,22BDG
07:17:02  3,37*68
$BDGSV,3,3,10,14,31,063,36,16,71,289,471702
07:17:02  0*68
$GNRMC,071702.000,A,3029.51238,N,11409.06162,E,0.036,16,71,289,4
07:17:02  0,128.02,300919,,,A*73
$GNVTG,128.02,T,,M,0.00,6,71,289,4
07:17:02  N,0.00,K,A*2A
$GNZDA,071702.000,30,09,2019,00,00*4B
$G,128.02,T,,M,0.00,
07:17:02  PTXT,01,01,01,ANTENNA OK*35
K
07:17:02  $GNG2A
$GNZDA
07:17:02  GA,071703.000,3029.51239,N,11409.06163,E,1,19,0..000
07:17:02  7,26.0,M,0.0,M,,*40
$GNGLL,3029.51239,N,11409.,71,289,4
07:17:02  06163,E,071703.000,A,A*4E
$GPGSA,A,3,05,13,15,20,21,24,29.51239,N,11409.
07:17:02  29,33,34,35,36,,1.4,0.7,1.2*38
$BDGSA,A,3,03,021,24,
07:17:02  4,06,08,09,13,14,16,,,,,1.4,0.7,1.2*22
$GPGSV,BDGSA,A,3,03,0
07:17:02  3,1,12,02,06,147,07,05,26,085,36,13,39,039,34,15,70,359,DGSA,A,3,03,0
07:17:03  39*73
$GPGSV,3,2,12,20,24,304,39,21,46,311,41,202
07:17:03  4,43,167,30,29,24,221,37*7F
$GPGSV,3,3,12,33,63,060,39,21,46,311,41,2
07:17:03  34,30,132,29,35,15,167,21,36,52,156,31*7F
$BDGSV,3,3,12,33,63,060,39,
07:17:03  GSV,3,1,10,01,,,32,02,,,30,03,54,187,33,04,29,117,30*6D156
07:17:03  
$BDGSV,3,2,10,06,75,314,34,08,59,160,36,09,57,241,2
07:17:03  55,34,13,80,223,37*68
$BDGSV,3,3,10,14,31,063,60,36,09,57,2
07:17:03  36,16,71,289,40*68
$GNRMC,071703.000,A,3029.51239,N,114,10,14,31,063,
07:17:03  09.06163,E,0.00,128.02,300919,,,A*72
$GNVTG,128.02,T,,M,0.00,N,0.00,K,A*2A
$GNZDA,071703.000,30,09,2019,00,00*48
$GP
07:17:03  A
$GPTXT,01,01,01,ANTENNA OK*35
72
$GNVTG
07:17:03  $GNGGA,071704.000,3029.51240,N,11409.06163,E,1,19,0.7,26.0,M,30,09,2019,00,00*4
07:17:03  ,0.0,M,,*49
$GNGLL,3029.51240,N,11409.06163,E,071704.00,19,0.7,26.0,M
07:17:03  0,A,A*47
$GPGSA,A,3,05,13,15,20,21,24,29,33,34,N,11409.06163,E,071704.00
07:17:03  ,35,36,,1.4,0.7,1.2*38
$BDGSA,A,3,03,04,06,08,09,13,14,11409.06163,E,071704.00
07:17:03  6,,,,,1.4,0.7,1.2*22
$GPGSV,3,1,12,02,06,147,0,08,09,13,14,1
07:17:03  7,05,26,085,36,13,39,039,34,15,70,359,39*73
$,06,147,0
07:17:04  GPGSV,3,2,12,20,24,304,39,21,46,311,40,24,43,167,30,29,24
07:17:04  ,221,37*7E
$GPGSV,3,3,12,33,63,060,39,34,30,13E,071704.00
07:17:04  2,29,35,15,167,21,36,52,156,31*7F
$BDGSV,3,1,10,01,,,3260,39,34,30,13
07:17:04  ,02,,,30,03,54,187,33,04,29,117,30*6D
$BDGSV,3
$BDGSV,3,1,10,01,,,32
07:17:04  ,2,10,06,75,314,34,08,59,160,36,09,57,255,34,13,80,223,37V,3
07:17:04  *68
$BDGSV,3,3,10,14,31,063,36,16,71,289,40*604.00
07:17:04  8
$GNRMC,071704.000,A,3029.51240,N,11409.06163,E,0.00,116,71,289,40*6
07:17:04  28.02,300919,,,A*7B
$GNVTG,128.02,T,,M,0.00,N,01,289,40*6
07:17:04  .00,K,A*2A
$GNZDA,071704.000,30,09,2019,00,00*4D
$GPTX8.02,T,,M,0.00,N,0
07:17:04  T,01,01,01,ANTENNA OK*35
K
07:17:04  $GNGGA,
$GNZDA
07:17:04  071705.000,3029.51240,N,11409.06163,E,1,19,0.7,00
07:17:04  26.0,M,0.0,M,,*48
$GNGLL,3029.51240,N,11409.06
07:17:04  163,E,071705.000,A,A*46
$GPGSA,A,3,05,13,15,20,21,24,29,51240,N,11409.06
07:17:05  33,34,35,36,,1.4,0.7,1.2*38
$BDGSA,A,3,03,04,,24,29,
07:17:05  06,08,09,13,14,16,,,,,1.4,0.7,1.2*22
$GPGSV,3,1,12,02,03,04,
07:17:05  6,147,,05,26,085,36,13,39,039,34,15,70,359,38*7,12,02,0
07:17:05  5
$GPGSV,3,2,12,20,24,304,39,21,46,311,40,24,43.00
07:17:05  ,167,30,29,24,220,37*7F
$GPGSV,3,3,12,33,63,060,39,34,3311,40,24,43
07:17:05  0,132,29,35,15,167,21,36,52,156,31*7F
$BDGSV,3,3,12,33,63,060,39,34,3
07:17:05  3,1,10,01,,,32,02,,,30,03,54,187,33,04,29,117,30*6D
$BD31
07:17:05  GSV,3,2,10,06,75,314,34,08,59,160,35,09,57,255,37
07:17:05  4,13,80,223,37*6B
$BDGSV,3,3,10,14,31,063,36,16,71,289,,24,43
07:17:05  40*68
$GNRMC,071705.000,A,3029.51240,N,11409.014,31,063,36,16,71,289,
07:17:05  6163,E,0.00,128.02,300919,,,A*7A
$GNVTG,128.0231,063,36,16,71,289,
07:17:05  ,T,,M,0.00,N,0.00,K,A*2A
$GNZDA,071705.000,30,09,2019,00,00*4C
$GPTXT,01,01,01,ANTENNA OK*35
$GNGGA,019,0.7,26.0,M
07:17:05  71706.000,3029.51241,N,11409.06163,E,1,19,0.7,00
07:17:05  26.0,M,0.0,M,,*4A
$GNGLL,3029.51241,N,11409.06163,E,071GNGGA,0
07:17:05  706.000,A,A*44
$GPGSA,A,3,05,13,15,20,21,24,29,51241,N,11409.06163,E,071
07:17:05  33,34,35,36,,1.4,0.7,1.2*38
$BDGSA,A,3,03,04,06,08,09,141,N,11409.06163,E,071
07:17:05  3,14,16,,,,,1.4,0.7,1.2*22
$GPGSV,3,1,12,02,06,04,06,08,09,1
07:17:05  ,147,,05,26,085,37,13,39,039,35,15,70,359,38*75
$GPGSV,34,06,08,09,1
07:17:06  ,2,12,20,24,304,39,21,46,311,41,24,43,167,26,270
07:17:06  9,24,220,38*76
$GPGSV,3,3,12,33,63,060,39,34,30,132,29,
07:17:06  35,15,167,21,36,52,156,32*7C
$BDGSV,3,1,10,01,,3,060,39,34,30,132,29,
07:17:06  ,32,02,,,30,03,54,187,33,04,29,117,30*6D
$BDGS
07:17:06  V,3,2,10,06,75,314,34,08,59,160,35,09,57,255,35,13,80,22BDGS
07:17:06  3,37*6A
$BDGSV,3,3,10,14,31,063,36,16,71,289,29,
07:17:06  40*68
$GNRMC,071706.000,A,3029.51241,N,11409.06163,E,0.036,16,71,289,
07:17:06  0,128.02,300919,,,A*78
$GNVTG,128.02,T,,M,0.0016,71,289,
07:17:06  ,N,0.00,K,A*2A
$GNZDA,071706.000,30,09,2019,00,00*4F
$GPTXT,01,01,01,ANTENNA OK*35
,
07:17:06  $GNGGA,071707.000,3029.51241,N,11409.06162,E,1,19,0.7,26.0,M,0.0,M,,*4A
$GNGLL,3029.51244,N,11409.06152,E,0
07:17:06  1,N,11409.06162,E,071707.000,A,A*44
$GPGSA,A,32019
07:17:06  ,05,13,15,20,21,24,29,33,34,35,36,,1.4,0.7,1.2*SA,A,3
07:17:06  38
$BDGSA,A,3,03,04,06,08,09,13,14,16,,,,,1.4,0.7,1.2*22A
07:17:06  
$GPGSV,3,1,12,02,06,147,,05,26,085,37,13,39,.7
07:17:07  039,35,15,70,359,39*74
$GPGSV,3,2,12,20,24,3044
07:17:07  ,39,21,46,311,41,24,43,167,26,29,24,220,38*76
$GPGSV,3,12,20,24,304
07:17:07  3,12,33,63,060,39,34,30,132,29,35,15,167,21,36,52,156,32*76
$GPGSV,3,
07:17:07  7C
$BDGSV,3,1,10,01,,,32,02,,,30,03,54,187,33,2
$GPGSV,3,1,12,02,06,147,,05,26,085,37,13,39,
07:17:07  04,29,117,30*6D
$BDGSV,3,2,10,06,75,314,33,0832,02,,,30,03,54,187,33,
07:17:07  ,59,160,35,09,57,255,35,13,80,223,37*6D
$BDGSV,3,3,10,14,08
07:17:07  ,31,063,36,16,71,289,40*68
$GNRMC,071707.000,A37
07:17:07  ,3029.51241,N,11409.06162,E,0.00,128.02,300919,,,A*78
$V,3,3,10,14
07:17:07  GNVTG,128.02,T,,M,0.00,N,0.00,K,A*2A
$GNZDA,07.00
07:17:07  1707.000,30,09,2019,00,00*4E
$GPTXT,01,01,01,ANTENNA OK*
07:17:07  35

07:17:07  $GNGGA,071708.000,3029.51209,N,11409.06225,E,1,19,0.7,26.1,M,0.0,M,,*48
$GNGLL,3029.51209,N,11409.06225,E,07170,26,085,37,13,39,
07:17:07  8.000,A,A*47
$GPGSA,A,3,05,13,15,20,21,24,29,33,34,35,3
07:17:07  6,,1.4,0.7,1.2*38
$BDGSA,A,3,03,04,06,08,09,13,14,16,,,,
07:17:07  ,1.4,0.7,1.2*22
$GPGSV,3,1,12,02,06,147,,05,269,13,14,16,,,,
07:17:08  ,085,37,13,39,039,35,15,70,359,39*74
$GPGSV,3,7,,05,26
07:17:08  2,12,20,24,304,39,21,46,311,41,24,43,167,28,29,24,220,38*
$GPGSV,3,
07:17:08  78
$GPGSV,3,3,12,33,63,060,39,34,30,132,29,35029.51209,N,11409.06225,E,07170
07:17:08  ,15,167,20,36,52,156,32*7D
$BDGSV,3,1,10,01,,,32,02,,,34,30,132,29,35
07:17:08  0,03,54,187,33,04,29,117,30*6D
$BDGSV,3,2,10,0V,3,1,10,01,,,32,02,,,3
07:17:08  6,75,314,33,08,59,160,35,09,57,255,35,13,80,223,38*62
$B0,0
07:17:08  DGSV,3,3,10,14,31,063,36,16,71,289,40*68
$GNRM
07:17:08  C,071708.000,A,3029.51209,N,11409.06225,E,0.545
07:17:08  ,128.02,300919,,,A*7A
$GNVTG,128.02,T,,M,0.54,N,1.01,K,29,35
07:17:08  A*2B
$GNZDA,071708.000,30,09,2019,00,00*41
$GP128.02,T,,M,0.54,N,1.01,K,
07:17:08  TXT,01,01,01,ANTENNA OK*35
K
07:17:08  $GN
07:17:08  GGA,071709.000,3029.51151,N,11409.06367,E,1,19708.000
07:17:08  ,0.7,26.1,M,0.0,M,,*40
$GNGLL,3029.51151,N,1144,N,1.01,K,
07:17:08  09.06367,E,071709.000,A,A*4F
$GPGSA,A,3,05,13,15,20,21,23029.51151,N,114
07:17:08  4,29,33,34,35,36,,1.4,0.7,1.2*38
$BDGSA,A,3,030,21,2
07:17:08  ,04,06,08,09,13,14,16,,,,,1.4,0.7,1.2*22
$GPG
$BDGSA,A,3,03
07:17:09  SV,3,1,12,02,06,147,,05,26,085,37,13,39,039,35,15,70,359
$BDGSA,A,3,03
07:17:09  ,39*74
$GPGSV,3,2,12,20,24,304,39,21,46,311,41,9,35
07:17:09  24,43,167,31,29,24,220,38*70
$GPGSV,3,3,12,33,63,060,391,46,311,41,
07:17:09  ,34,30,132,31,35,15,167,20,36,52,156,32*74
$BDGSV,3,3,12,33,63,060,39
07:17:09  GSV,3,1,10,01,,,32,02,,,30,03,54,187,33,04,29,117,30*6D
56
07:17:09  $BDGSV,3,2,10,06,75,314,33,08,59,160,38,09,57,1,
07:17:09  255,36,13,80,223,38*6C
$BDGSV,3,3,10,14,31,063,37,16,71,57,
07:17:09  ,289,41*68
$GNRMC,071709.000,A,3029.51151,N,114,10,14,31,063,37,16,71
07:17:09  09.06367,E,3.01,117.97,300919,,,A*71
$GNVTG,11,14,31,063,37,16,71
07:17:09  7.97,T,,M,3.01,N,5.58,K,A*20
$GNZDA,071709.000,30,09,2019,00,00*40
$GPTXT,01,01,01,ANTENNA OK*35
,35
07:17:09  $GNGGA,071710.000,3029.51049,N,11409.06617,E,1,19,0.7,26.2,M,0.0,M,,*41
$GNGLL,3029.5124
07:17:09  1049,N,11409.06617,E,071710.000,A,A*4D
$GPGSA,09
07:17:09  A,3,05,13,15,20,21,24,29,33,34,35,36,,1.4,0.7,1GPGSA,
07:17:09  .2*38
$BDGSA,A,3,03,04,06,08,09,13,14,16,,,,,1.4,0.7,1.GNGGA
07:17:09  2*22
$GPGSV,3,1,12,02,06,147,,05,26,085,35,13,,,,,1.4,0.7,1.
07:17:10  39,039,38,15,70,359,39*7B
$GPGSV,3,2,12,20,24,5,35,13,
07:17:10  304,38,21,46,311,41,24,43,167,31,29,24,220,38*71
$GPGSV,2,12,20,24,
07:17:10  ,3,3,12,33,63,060,39,34,30,132,34,35,15,167,20,36,52,156,38
07:17:10  32*71
$BDGSV,3,1,10,01,,,32,02,,,30,03,54,187,
07:17:10  33,04,29,117,30*6D
$BDGSV,3,2,10,06,75,314,33,,,32,02,,,30,03,54,187,
07:17:10  ,08,59,160,38,09,57,255,37,13,80,223,39*6C
$BDGSV,3,3,14,33
07:17:10  0,14,31,063,35,16,71,289,41*6A
$GNRMC,071710.0023
07:17:10  0,A,3029.51049,N,11409.06617,E,7.48,111.68,300919,,,A*7CDGSV,3,3,1
07:17:10  
$GNVTG,111.68,T,,M,7.48,N,13.85,K,A*18
$GNZD710.000
07:17:10  A,071710.000,30,09,2019,00,00*48
$GPTXT,01,01,01,ANTENNA919
07:17:10   OK*35

07:17:10  $G0
07:17:10  NGGA,071711.000,3029.50926,N,11409.06922,E,1,1,01,01,ANTENNA
07:17:10  9,0.7,26.2,M,0.0,M,,*48
$GNGLL,3029.50926,N,11409.069225
07:17:10  ,E,071711.000,A,A*44
$GPGSA,A,3,05,13,15,20,21L,3029.50926,N,11409.06922
07:17:10  ,24,29,33,34,35,36,,1.4,0.7,1.2*38
$BDGSA,A,3,03,04,06,029.50926,N,11409.06922
07:17:10  8,09,13,14,16,,,,,1.4,0.7,1.2*22
$GPGSV,3,1,12A,3,03,04,06,0
07:17:11  ,02,06,147,,05,26,085,31,13,39,039,38,15,70,35SV,3,1,12
07:17:11  9,39*7F
$GPGSV,3,2,12,20,24,304,35,21,46,311,41,24,43,1GNZD
07:17:11  67,37,29,24,220,38*7A
$GPGSV,3,3,12,33,63,060,321,46,311,41,24,43,1
07:17:11  9,34,30,132,28,35,15,167,20,36,52,156,34*7A
$BDGSV,3,1,12,33,63,060,3
07:17:11  10,01,,,32,02,,,30,03,54,187,33,04,29,117,30*6D
07:17:11  
$BDGSV,3,2,10,06,75,314,33,08,59,160,35,09,5741,24,43,1
07:17:11  ,255,37,13,80,223,39*61
$BDGSV,3,3,10,14,31,063,35,16,79,57
07:17:11  1,289,41*6A
$GNRMC,071711.000,A,3029.50926,N,11409.069231,063,35,16,7
07:17:11  2,E,10.79,109.16,300919,,,A*41
$GNVTG,109.16,T,,M,10.79,N,19.99,K,A*2B
$GNZDA,071711.000,30,09,2019,00,00*49
$19
07:17:11  GPTXT,01,01,01,ANTENNA OK*35
N
07:17:11  $GNGGA,071712.000,3029.50802,N,11409.07261,E,1,19,0.7,26.4,M,0.0,M,,*47
$G9
07:17:11  NGLL,3029.50802,N,11409.07261,E,071712.000,A,A*4D
$GPGS2
07:17:11  A,A,3,05,13,15,20,21,24,29,33,34,35,36,,1.4,0.7,$GPGS
07:17:11  1.2*38
$BDGSA,A,3,03,04,06,08,09,13,14,16,,,,,47
$G
07:17:11  1.4,0.7,1.2*22
$GPGSV,3,1,12,02,06,147,,05,26,085,31,13,,,,,
07:17:12  ,39,039,42,15,70,359,40*7C
$GPGSV,3,2,12,20,2085,31,13
07:17:12  4,304,35,21,46,311,41,24,43,167,33,29,24,220,38*7E
$GPGS3,2,12,20,2
07:17:12  V,3,3,12,33,63,060,39,34,30,132,28,35,15,167,20
07:17:12  ,36,52,156,34*7A
$BDGSV,3,1,10,01,,,32,02,,,31,03,54,18K
07:17:12  7,33,04,29,117,30*6C
$BDGSV,3,2,10,06,75,314,33,,,32,02,,,31,03,54,18
07:17:12  ,08,59,160,35,09,57,255,38,13,80,223,39*6E
$B0,06,75,314,33
07:17:12  DGSV,3,3,10,14,31,063,35,16,71,289,41*6A
$GNRMC,071712.
07:17:12  000,A,3029.50802,N,11409.07261,E,12.33,107.67,33
07:17:12  00919,,,A*4C
$GNVTG,107.67,T,,M,12.33,N,22.84,K,A*2B
$GNZDA
07:17:12  NZDA,071712.000,30,09,2019,00,00*4A
$GPTXT,01,.33
07:17:12  01,01,ANTENNA OK*35

07:17:12  $GNGGA,07GPTXT,01,
07:17:12  1713.000,3029.50679,N,11409.07644,E,1,19,0.7,26.67
07:17:12  .6,M,0.0,M,,*45
$GNGLL,3029.50679,N,11409.07642.84
07:17:12  4,E,071713.000,A,A*4D
$GPGSA,A,3,05,13,15,20,21,24,29,33679,N,11409.0764
07:17:12  ,34,35,36,,1.4,0.7,1.2*38
$BDGSA,A,3,03,04,064,29,33
07:17:12  ,08,09,13,14,16,,,,,1.4,0.7,1.2*22
$GPGSV,3,1,12,02,06,04,06
07:17:13  147,,05,26,085,30,13,39,039,42,15,70,359,42*7F2,02,06,
07:17:13  
$GPGSV,3,2,12,20,24,304,35,21,46,311,42,24,43,1
$G
07:17:13  67,33,29,24,220,38*7D
$GPGSV,3,3,12,33,63,060,39,34,30,1,42,24,43,1
07:17:13  132,30,35,15,167,20,36,52,156,34*73
$BDGSV,3,3,12,33,63,060,39,34,30,
07:17:13  1,10,01,,,32,02,,,31,03,54,187,34,04,29,117,30*6B
$BDGS
07:17:13  V,3,2,10,06,75,314,33,08,59,160,34,09,57,255,36,30
07:17:13  13,80,223,39*61
$BDGSV,3,3,10,14,31,063,33,16,30,
07:17:13  71,289,42*6F
$GNRMC,071713.000,A,3029.50679,N,11409.076431,063,33,16,
07:17:13  4,E,13.41,106.77,300919,,,A*48
$GNVTG,106.77,T,,M,13.41,N,24.83,K,A*2E
$GNZDA,071713.000,30,09,2019,00,00*4B
$GPTXT,016.2
07:17:13  ,01,01,ANTENNA OK*35
N
07:17:13  $GNGGA,071714.000,3029106.77
07:17:13  .50554,N,11409.08075,E,1,19,0.7,26.8,M,0.0,M,,
07:17:13  *4B
$GNGLL,3029.50554,N,11409.08075,E,071714.000,A,A*4D1713.000
07:17:13  
$GPGSA,A,3,05,13,15,20,21,24,29,33,34,35,36,,10
07:17:13  .4,0.7,1.2*38
$BDGSA,A,3,03,04,06,08,09,13,14,11409.08075
07:17:14  6,,,,,1.4,0.7,1.2*22
$GPGSV,3,1,12,02,06,147,,05,26,085,14,1
07:17:14  ,33,13,39,039,39,15,70,359,40*72
$GPGSV,3,2,105,26,085
07:17:14  2,20,24,304,36,21,46,311,42,24,43,167,26,29,24,220,38*7A$GPGSV,3,2,1
07:17:14  
$GPGSV,3,3,12,33,63,060,31,34,30,132,35,35,15,0
07:17:14  167,20,36,52,156,31*7B
$BDGSV,3,1,10,01,,,32,02,,,31,03,132,35,35,15,
07:17:14  ,54,187,34,04,29,117,30*6B
$BDGSV,3,2,10,06,751,10,01,,,32,02,,,31,03
07:17:14  ,314,34,08,59,160,18,09,57,255,36,13,80,223,37*66
$BDGSV,75
07:17:14  ,3,3,10,14,31,063,18,16,71,289,39*6A
$GNRMC,0
07:17:14  71714.000,A,3029.50554,N,11409.08075,E,14.47,10
07:17:14  6.32,300919,,,A*48
$GNVTG,106.32,T,,M,14.47,N,26.79,K,A5,15,
07:17:14  *29
$GNZDA,071714.000,30,09,2019,00,00*4C
$GPTXT,01,01,01,ANTENNA OK*35

07:17:14  $GN5,
07:17:14  GGA,071715.000,3029.50408,N,11409.08570,E,1,1971714.000
07:17:14  ,0.7,27.0,M,0.0,M,,*4B
$GNGLL,3029.50408,N,114ANTENNA OK
07:17:14  09.08570,E,071715.000,A,A*44
$GPGSA,A,3,05,13,15,20,21,23029.50408,N,114
07:17:14  4,29,33,34,35,36,,1.4,0.7,1.2*38
$BDGSA,A,3,030,21,2
07:17:14  ,04,06,08,09,13,14,16,,,,,1.4,0.7,1.2*22
$GPG
$BDGSA,A,3,03
07:17:15  SV,3,1,12,02,06,147,,05,26,085,31,13,39,039,39,22
$GPG
07:17:15  15,70,359,26*70
$GPGSV,3,2,12,20,24,304,36,21,46,311,40,5
$GN
07:17:15  24,43,167,26,29,24,220,37*77
$GPGSV,3,3,12,33,63,060,311,46,311,40,
07:17:15  ,34,30,132,33,35,15,167,20,36,52,156,31*7D
$BDGSV,3,3,12,33,63,060,31
07:17:15  GSV,3,1,10,01,,,31,02,,,31,03,54,187,34,04,29,117,29*60
56
07:17:15  $BDGSV,3,2,10,06,75,314,23,08,59,160,18,09,57,0,
07:17:15  255,33,13,80,223,37*65
$BDGSV,3,3,10,14,31,063,26,16,71,57,
07:17:15  ,289,28*67
$GNRMC,071715.000,A,3029.50408,N,114,10,14,31,063,26,16,71
07:17:15  09.08570,E,16.60,106.10,300919,,,A*46
$GNVTG,106.10,T,,M,16.60,N,30.75,K,A*25
$GNZDA,071715.000,30,09,2019,00,00*4D
$G,33,34,35,36,,1
07:17:15  PTXT,01,01,01,ANTENNA OK*35
N
07:17:15  $GNGGA,071716.000,3029.50211,N,11409.09116,E,1,18,0.7,27.3,M,0.0,M,,*41
$GNGLL,325
$GNZDA
07:17:15  029.50211,N,11409.09116,E,071716.000,A,A*4C
$GPGSA,A,3,409.09116
07:17:15  05,13,15,20,21,24,29,33,34,35,36,,1.4,0.7,1.2*38,A,3,
07:17:15  
$BDGSA,A,3,04,06,08,09,13,14,16,,,,,,1.4,0.7,1.2*21
$
$GNZDA
07:17:15  GPGSV,3,1,12,02,06,147,,05,26,085,35,13,39,0394
07:17:16  ,14,15,70,359,26*7B
$GPGSV,3,2,12,20,24,304,34,21,46,31.7
07:17:16  1,36,24,43,167,29,29,24,220,20*7D
$GPGSV,3,3,120,24,304,34,21,46,31
07:17:16  ,33,63,060,14,34,30,132,38,35,15,167,20,36,52,120
07:17:16  56,30*70
$BDGSV,3,1,10,01,,,31,02,,,31,03,54,187,03,04,$GNZDA
07:17:16  29,117,29*64
$BDGSV,3,2,10,06,75,314,23,08,5902,,,31,03,54,187,03,04,
07:17:16  ,160,32,09,57,255,22,13,80,223,37*6D
$BDGSV,3,3,10,14,31,59
07:17:16  ,063,33,16,71,289,28*63
$GNRMC,071716.000,A,306D
$BDGSV,3,3,10,14,31
07:17:16  29.50211,N,11409.09116,E,18.93,106.26,300919,,,A*49
$GN,3,10,14,31
07:17:16  VTG,106.26,T,,M,18.93,N,35.05,K,A*20
$GNZDA,0713
07:17:16  716.000,30,09,2019,00,00*4E
$GPTXT,01,01,01,ANTENNA OK*
07:17:16  35

07:17:16  $GNGGA,071717.001,01,01,ANTENNA OK*
07:17:16  00,3029.49922,N,11409.09716,E,1,19,0.7,27.6,M,0 OK*
07:17:16  .0,M,,*41
$GNGLL,3029.49922,N,11409.09716,E,071717.000,NZDA
07:17:16  A,A*48
$GPGSA,A,3,05,13,15,20,21,24,29,33,34,3,11409.09716,E,071717.000,
07:17:16  5,36,,1.4,0.7,1.2*38
$BDGSA,A,3,03,04,06,08,09,,34,3
07:17:16  13,14,16,,,,,1.4,0.7,1.2*22
$GPGSV,3,1,12,02,06,147,,058,09,
07:17:17  ,26,085,35,13,39,039,37,15,70,359,26*7A
$GPGS6,147,,05
07:17:17  V,3,2,12,20,24,304,28,21,46,311,29,24,43,167,29,29,24,2226
07:17:17  0,33*7C
$GPGSV,3,3,12,33,63,060,40,34,30,132,361717.000,
07:17:17  ,35,15,167,20,36,52,156,35*7A
$BDGSV,3,1,10,01,63,060,40,34,30,132,36
07:17:17  ,,,31,02,,,25,03,54,187,30,04,29,117,29*61
$BDGSV,3,2,1DGSV,3,1,10,01
07:17:17  0,06,75,314,30,08,59,160,36,09,57,255,27,13,80
$BDGSV,3,2,1
07:17:17  ,223,41*6F
$BDGSV,3,3,10,14,31,063,40,16,71,289,33*6D
$00,
07:17:17  GNRMC,071717.000,A,3029.49922,N,11409.09716,E,25
07:17:17  2.42,107.51,300919,,,A*49
$GNVTG,107.51,T,,M,22.42,N,41.53,K,A*24
$GNZDA,071717.000,30,09,2019,00,00*4F
$GPTXT,01,01,01,1
07:17:17  ,ANTENNA OK*35
N
07:17:17  $GNGGA,071718.000,3029.49567,N,11409.10328,E,1,19,0.7,27.7,M,0.0,M,,*43
.53
07:17:17  $GNGLL,3029.49567,N,11409.10328,E,071718.000,A,A*4B
$GPG,01,01,01
07:17:17  SA,A,3,05,13,15,20,21,24,29,33,34,35,36,,1.4,0.29.49567
07:17:17  7,1.2*38
$BDGSA,A,3,03,04,06,08,09,13,14,16,,
07:17:17  ,,,1.4,0.7,1.2*22
$GPGSV,3,1,12,02,06,147,12,05,26,085,316,,
07:17:18  2,13,39,039,37,15,70,359,29*71
$GPGSV,3,2,12,226,085,3
07:17:18  0,24,304,31,21,46,311,44,24,43,167,29,29,24,220,38*74
$GPGSV,3,2,12,2
07:17:18  GPGSV,3,3,12,33,63,060,39,34,30,132,33,35,15,167
07:17:18  ,20,36,52,156,35*71
$BDGSV,3,1,10,01,,,36,02,,,25,03,54GNGLL
07:17:18  ,187,30,04,29,117,29*66
$BDGSV,3,2,10,06,75,310,01,,,36,02,,,25,03,54
07:17:18  14,35,08,59,160,38,09,57,255,39,13,80,223,41*6B,2,10,06,75,3
07:17:18  
$BDGSV,3,3,10,14,31,063,40,16,71,289,42*6B
$GNRMC,07171409.10328
07:17:18  18.000,A,3029.49567,N,11409.10328,E,22.60,109.8
07:17:18  3,300919,,,A*4B
$GNVTG,109.83,T,,M,22.60,N,41.86,K,A*2D$GNRMC,0717
07:17:18  
$GNZDA,071718.000,30,09,2019,00,00*40
$GPTXG
07:17:18  T,01,01,01,ANTENNA OK*35
N
07:17:18  $
07:17:18  GNGGA,071719.000,3029.49213,N,11409.10909,E,1,19,0.7,27.83
07:17:18  2,M,0.0,M,,*4A
$GNGLL,3029.49213,N,11409.10909.86
07:17:18  ,E,071719.000,A,A*47
$GPGSA,A,3,05,13,15,20,21,24,29,33,13,N,11409.10909
07:17:18  34,35,36,,1.4,0.7,1.2*38
$BDGSA,A,3,03,04,06,029,33,
07:17:18  8,09,13,14,16,,,,,1.4,0.7,1.2*22
$GPGSV,3,1,1,A,3,03,04,06,0
07:17:19  2,02,06,147,12,05,26,085,32,13,39,039,37,15,70,359,32*7B,3,03,04,06,0
07:17:19  
$GPGSV,3,2,12,20,24,304,23,21,46,311,44,24,43,$GNZDA
07:17:19  167,30,29,24,220,39*7E
$GPGSV,3,3,12,33,63,060,39,34,30,311,44,24,43,
07:17:19  ,132,33,35,15,167,20,36,52,156,34*70
$BDGSV,3,1,12,33,63,060,39,34,30
07:17:19  ,10,01,,,36,02,,,25,03,54,187,30,04,29,117,33*52
07:17:19  6D
$BDGSV,3,2,10,06,75,314,35,08,59,160,38,09,57,255,39,43,
07:17:19  ,13,80,223,41*6B
$BDGSV,3,3,10,14,31,063,39,16,09,57,255,39
07:17:19  ,71,289,43*64
$GNRMC,071719.000,A,3029.49213,N,11409.109,31,063,39,16
07:17:19  09,E,21.75,114.14,300919,,,A*42
$GNVTG,114.14,T,,M,21.75,N,40.27,K,A*22
$GNZDA,071719.000,30,09,2019,00,00*41
$GPTX
07:17:19  
$GPTXT,01,01,01,ANTENNA OK*35
LL,3029.5
07:17:19  $GNGGA,071720.000,3029.48853,N,11409.11508,E,1,19,0.7,27.0,M,0.0,M,,*41
$GN
07:17:19  GLL,3029.48853,N,11409.11508,E,071720.000,A,A*475
07:17:19  E
$GPGSA,A,3,05,13,15,20,21,24,29,33,34,35,36.75
07:17:19  ,,1.4,0.7,1.2*38
$BDGSA,A,3,03,04,06,08,09,13,14,16,,,,,N
07:17:19  1.4,0.7,1.2*22
$GPGSV,3,1,12,02,06,147,12,05,2,13,14,16,,,,,
07:17:20  6,085,32,13,39,039,37,15,70,359,32*7B
$GPGSV,3,2,12,20,13,14,16,,,,,
07:17:20  24,304,32,21,46,311,44,24,43,167,32,29,24,220,39
07:17:20  *7C
$GPGSV,3,3,12,33,63,060,38,34,30,132,33,35,15,167,2A
07:17:20  0,36,52,156,34*71
$BDGSV,3,1,10,01,,,36,02,,,34,30,132,33,35,15,167,2
07:17:20  33,03,54,187,35,04,29,117,33*6F
$BDGSV,3,2,10,06,75,314,01,,,36,02,,,
07:17:20  33,08,59,160,38,09,57,255,39,13,80,223,41*6D
$10,06,75,314,
07:17:20  BDGSV,3,3,10,14,31,063,39,16,71,289,43*64
$GNR5
07:17:20  MC,071720.000,A,3029.48853,N,11409.11508,E,22.76,118.83,33
07:17:20  00919,,,A*49
$GNVTG,118.83,T,,M,22.76,N,42.1633,35,15,167,2
07:17:20  ,K,A*20
$GNZDA,071720.000,30,09,2019,00,00*4B
$GPTXT,0,T,,M,22.76,N,42.16
07:17:20  1,01,01,ANTENNA OK*35
6
07:17:20  $GNGA
07:17:20  GA,071721.000,3029.48485,N,11409.12113,E,1,20,1720.000
07:17:20  0.7,26.8,M,0.0,M,,*49
$GNGLL,3029.48485,N,114076,N,42.16
07:17:20  9.12113,E,071721.000,A,A*45
$GPGSA,A,3,02,05,13,15,20,21029.48485,N,1140
07:17:20  ,24,29,33,34,35,36,1.3,0.7,1.1*3E
$BDGSA,A,3,0,20,21
07:17:20  3,04,06,08,09,13,14,16,,,,,1.3,0.7,1.1*26
$GPGSV,3,1,12A,A,3,0
07:17:21  ,02,06,147,12,05,26,085,32,13,39,039,37,15,70,SV,3,1,12
07:17:21  359,32*7B
$GPGSV,3,2,12,20,24,304,32,21,46,311,43,24,43,167,2
07:17:21  167,32,29,24,220,39*7B
$GPGSV,3,3,12,33,63,060,32,21,46,311,43,24,43,
07:17:21  ,38,34,30,132,33,35,15,167,20,36,52,156,32*77
$GPGSV,3,3,12,33,63,060
07:17:21  $BDGSV,3,1,10,01,,,36,02,,,33,03,54,187,35,04,29,117,33*619.000
07:17:21  F
$BDGSV,3,2,10,06,75,314,33,08,59,160,38,09,54,187,35,04,29,117,33*6
07:17:21  57,255,39,13,80,223,41*6D
$BDGSV,3,3,10,14,31,063,39,16,09,
07:17:21  ,71,289,43*64
$GNRMC,071721.000,A,3029.48485,N,3,3,10,14,31,063,39,16
07:17:21  11409.12113,E,22.47,122.93,300919,,,A*48
$GNVTG,122.93,T,,M,22.47,N,41.62,K,A*2A
$GNZDA,071721.000,30,09,2019,00,00*4A
$GPTXT
07:17:21  
$GPTXT,01,01,01,ANTENNA OK*35
$GNGGA
07:17:21  $GNGGA,071722.000,3029.48118,N,11409.12709,E,1,20,0.7
07:17:21  ,26.5,M,0.0,M,,*4B
$GNGLL,3029.48118,N,11409.12
07:17:21  709,E,071722.000,A,A*4A
$GPGSA,A,3,02,05,13,15NGLL,3029.48118,N,11409.12
07:17:21  ,20,21,24,29,33,34,35,36,1.3,0.7,1.1*3E
$BDGSA,A,3,03,0L,3029.48118,N,11409.12
07:17:21  4,06,08,09,13,14,16,,,,,1.3,0.7,1.1*26
$GPGSV
$BDGSA,A,3,03,0
07:17:22  ,3,1,12,02,06,147,17,05,26,085,32,13,39,039,37,15,70,359,$BDGSA,A,3,03,0
07:17:22  32*7E
$GPGSV,3,2,12,20,24,304,32,21,46,311,43,A
07:17:22  24,43,167,30,29,24,220,33*73
$GPGSV,3,3,12,33,24,304,32,21,46,311,43,
07:17:22  63,060,38,34,30,132,33,35,15,167,20,36,52,156,32*77
$BDGSV,3,3,12,33,
07:17:22  SV,3,1,10,01,,,36,02,,,33,03,54,187,35,04,29,120
07:17:22  17,33*6F
$BDGSV,3,2,10,06,75,314,34,08,59,160,21,46,311,43,
07:17:22  38,09,57,255,39,13,80,223,40*6B
$BDGSV,3,3,10,14,31,063160,
07:17:22  ,39,16,71,289,43*64
$GNRMC,071722.000,A,3029.48118,N,114,10,14,31,063
07:17:22  09.12709,E,22.22,126.08,300919,,,A*42
$GNVTG,1,14,31,063
07:17:22  26.08,T,,M,22.22,N,41.15,K,A*2F
$GNZDA,071722.000,30,0919
07:17:22  ,2019,00,00*49
$GPTXT,01,01,01,ANTENNA OK*35

07:17:22  $GNGGA,071723.000,3029.47753,N,11409.13304,E,1,20,0.7,26.2,M,0.0,M,,*43
$GNGLL,3029.47753,N,11409.1
07:17:22  13304,E,071723.000,A,A*45
$GPGSA,A,3,02,05,13NGGA
07:17:22  ,15,20,21,24,29,33,34,35,36,1.3,0.7,1.1*3E
$BDGSA,A,3,03
07:17:22  ,04,06,08,09,13,14,16,,,,,1.3,0.7,1.1*26
$GPGSE
$BDGSA,A,3,03
07:17:23  V,3,1,12,02,06,147,24,05,26,085,32,13,39,039,37,15,70,35
$BDGSA,A,3,03
07:17:23  9,31*7D
$GPGSV,3,2,12,20,24,304,32,21,46,311,43304
07:17:23  ,24,43,167,19,29,24,220,36*7D
$GPGSV,3,3,12,30,24,304,32,21,46,311,43
07:17:23  3,63,060,38,34,30,132,33,35,15,167,20,36,52,156,30*75
$GPGSV,3,3,12,3
07:17:23  BDGSV,3,1,10,01,,,36,02,,,33,03,54,187,35,04,29,
07:17:23  117,33*6F
$BDGSV,3,2,10,06,75,314,34,08,59,160,39,09,571,43
07:17:23  ,255,38,13,80,223,40*6B
$BDGSV,3,3,10,14,31,06,160,39,09,57
07:17:23  3,39,16,71,289,43*64
$GNRMC,071723.000,A,3029.47753,N,113,10,14,31,06
07:17:23  409.13304,E,22.06,128.12,300919,,,A*453,N,11
07:17:23  E
$GNVTG,128.12,T,,M,22.06,N,40.85,K,A*24
$GNZDA,07172
07:17:23  3.000,30,09,2019,00,00*48
$GPTXT,01,01,01,ANTENNA OK*35
07:17:23  

07:17:23  $GNGGA,071724.000,3029.47392,N,11409.13892,E,1,20,0.7,26.0,M
07:17:23  M,0.0,M,,*4B
$GNGLL,3029.47392,N,11409.13892,E,071724.00,20,0.7,26.0,
07:17:24  0,A,A*4F
$GPGSA,A,3,02,05,13,15,20,21,24,29,33,N,11409.13892,E,071724.00
07:17:24  ,34,35,36,1.3,0.7,1.1*3E
$BDGSA,A,3,03,04,06,4,29,33
07:17:24  08,09,13,14,16,,,,,1.3,0.7,1.1*26
$GPGSV,3,1,12,02,06,1,04,06,
07:17:24  47,24,05,26,085,33,13,39,039,37,15,70,359,31*7C02,06,1
07:17:24  
$GPGSV,3,2,12,20,24,304,31,21,46,311,43,24,43,167,19,296.0,
07:17:24  ,24,220,22*7B
$GPGSV,3,3,12,33,63,060,38,34,30,311,43,24,43,167,19,29
07:17:24  ,132,33,35,15,167,20,36,52,156,32*77
$BDGSV,3,3,12,33,63,060,38,34,30
07:17:24  1,10,01,,,36,02,,,33,03,54,187,35,04,29,117,33*6F
$BDGS
07:17:24  V,3,2,10,06,75,314,34,08,59,160,39,09,57,255,38
07:17:24  ,13,80,223,41*6A
$BDGSV,3,3,10,14,31,063,39,16,71,289,43,24,43,167,19,29
07:17:24  *64
$GNRMC,071724.000,A,3029.47392,N,11409.138,31,063,39,16,71,289,43
07:17:24  92,E,21.81,129.31,300919,,,A*48
$GNVTG,129.31,T,,M,21.86,71,289,43
07:17:24  1,N,40.39,K,A*2F
$GNZDA,071724.000,30,09,2019,00,00*4F
G,129.31,T,,M,21.8
07:17:24  $GPTXT,01,01,01,ANTENNA OK*35
$GNGGA,071725.000,3029.47032,N,11409.144729.47753,N,11409.
07:17:24  ,E,1,20,0.7,25.7,M,0.0,M,,*42
$GNGLL,3029.4703
07:17:24  2,N,11409.14472,E,071725.000,A,A*42
$GPGSA,A,.0
07:17:24  3,02,05,13,15,20,21,24,29,33,34,35,36,1.3,0.7,1.1*3E
$BM
07:17:24  DGSA,A,3,03,04,06,08,09,13,14,16,,,,,1.3,0.7,1.1
07:17:25  *26
$GPGSV,3,1,12,02,06,147,24,05,26,085,33,13,39,039,3
07:17:25  8,15,70,359,31*73
$GPGSV,3,2,12,20,24,304,31,239,039,3
07:17:25  1,46,311,43,24,43,167,19,29,24,220,22*7B
$GPGSV,3,2,12,20,24,304,31,2
07:17:25  SV,3,3,12,33,63,060,38,34,30,132,34,35,15,167,20,36,52,150
07:17:25  6,32*70
$BDGSV,3,1,10,01,,,36,02,,,33,03,54,187,35,04,2,071725.000,3029.47032,N,11409.14472
07:17:25  9,117,35*69
$BDGSV,3,2,10,06,75,314,33,08,59,1,,,33,03,54,187,35,04,2
07:17:25  60,39,09,57,255,38,13,80,223,41*6D
$BDGSV,3,3,14,33,08,59,1
07:17:25  0,14,31,063,39,16,71,289,43*64
$GNRMC,071725.000,A,3029
$BDGSV,3,3,1
07:17:25  .47032,N,11409.14472,E,21.69,129.85,300919,,,A$BDGSV,3,3,1
07:17:25  *4C
$GNVTG,129.85,T,,M,21.69,N,40.17,K,A*2A
$G071725.000,3029.47032,N,11409.14472
07:17:25  NZDA,071725.000,30,09,2019,00,00*4E
$GPTXT,01,01,01,ANTENNA OK*35

07:17:25  $GNGGA,071726.000,3029.46663,N,11409.15062,E,1,20,0.7,25.3,M,0.0,M,,*42
$GNGLL,3029.46663,N,11409.1506TENNA OK
07:17:25  2,E,071726.000,A,A*46
$GPGSA,A,3,02,05,13,15,2071726.000
07:17:25  0,21,24,29,33,34,35,36,1.3,0.7,1.1*3E
$BDGSA,A,3,03,04,026.000
07:17:26  6,08,09,13,14,16,,,,,1.3,0.7,1.1*26
$GPGSV,3,1DGSA,A,3,03,04,0
07:17:26  ,12,02,06,147,24,05,26,085,33,13,39,039,38,15,70,359,32*GSA,A,3,03,04,0
07:17:26  70
$GPGSV,3,2,12,20,24,304,31,21,46,311,43,24
07:17:26  ,43,167,19,29,24,220,22*7B
$GPGSV,3,3,12,33,63,060,38,34,46,311,43,24
07:17:26  ,30,132,34,35,15,167,20,36,52,156,32*70
$BDGSV,3,3,12,33,63,060,38,34
07:17:26  ,3,1,10,01,,,38,02,,,33,03,54,187,35,04,29,117,35*67
$B
07:17:26  DGSV,3,2,10,06,75,314,33,08,59,160,39,09,57,255,17
07:17:26  38,13,80,223,41*6D
$BDGSV,3,3,10,14,31,063,39,34
07:17:26  ,16,71,289,43*64
$GNRMC,071726.000,A,3029.46663,N,114090,14,31,063,39
07:17:26  .15062,E,22.35,129.72,300919,,,A*4A
$GNVTG,1294,31,063,39
07:17:26  .72,T,,M,22.35,N,41.40,K,A*2B
$GNZDA,071726.000,30,09,20
07:17:26  19,00,00*4D
$GPTXT,01,01,01,ANTENNA OK*35

07:17:26  $GA
$GNVTG,129
07:17:26  NGGA,071727.000,3029.46281,N,11409.15671,E,1,2001
07:17:26  ,0.7,25.1,M,0.0,M,,*4D
$GNGLL,3029.46281,N,11409.15671,1,43,24
07:17:26  E,071727.000,A,A*4B
$GPGSA,A,3,02,05,13,15,20,,3029.46281,N,11409.15671,
07:17:26  21,24,29,33,34,35,36,1.3,0.7,1.1*3E
$BDGSA,A,3,03,04,0629.46281,N,11409.15671,
07:17:26  ,08,09,13,14,16,,,,,1.3,0.7,1.1*26
$GPGSV,3,1,GSA,A,3,03,04,06
07:17:27  12,02,06,147,24,05,26,085,33,13,39,039,38,15,70,SV,3,1,
07:17:27  360,32*7A
$GPGSV,3,2,12,20,24,304,31,21,46,311,43,24,431
07:17:27  ,167,19,29,24,220,22*7B
$GPGSV,3,3,12,33,63,004,31,21,46,311,43,24,43
07:17:27  60,38,34,30,132,34,35,15,167,20,36,52,156,33*71
$BDGSV,3,3,12,33,63,0
07:17:27  3,1,10,01,,,38,02,,,33,03,54,187,32,04,29,117,35
07:17:27  *60
$BDGSV,3,2,10,06,75,314,33,08,59,160,39,09,311,43,24,43
07:17:27  ,57,255,38,13,80,223,40*6C
$BDGSV,3,3,10,14,31,063,37,19,09
07:17:27  6,71,289,43*6A
$GNRMC,071727.000,A,3029.46281SV,3,3,10,14,31,063,37,1
07:17:27  ,N,11409.15671,E,22.41,129.26,300919,,,A*45
$GNVTG,129.231,063,37,1
07:17:27  6,T,,M,22.41,N,41.51,K,A*29
$GNZDA,071727.000,30,09,2019,00,00*4C
$GPTXT,01,01,01,ANTENNA OK*35
4,43
07:17:27  $GNGGA,071728.000,3029.45898,N,11409.16271,E,1663,N,11409.1506
07:17:27  ,20,0.7,24.8,M,0.0,M,,*4C
$GNGLL,3029.45898,N,11409.162A OK
07:17:27  71,E,071728.000,A,A*42
$GPGSA,A,3,02,05,13,15,2LL,3029.45898,N,11409.162
07:17:27  0,21,24,29,33,34,35,36,1.3,0.7,1.1*3E
$BDGSA,A3,15,2
07:17:27  ,3,03,04,06,08,09,13,14,16,,,,,1.3,0.7,1.1*26
$GPGSV,3,1DGSA,A
07:17:28  ,12,02,06,147,24,05,26,085,33,13,39,039,38,15,GPGSV,3,1
07:17:28  70,360,32*7A
$GPGSV,3,2,12,20,24,304,31,21,46,311,43,24GNGGA,071728.000,3029.45898,N,11409.16271,E,1
07:17:28  ,43,167,23,29,24,220,40*76
$GPGSV,3,3,12,33,63,304,31,21,46,311,43,24
07:17:28  ,060,38,34,30,132,34,35,15,167,29,36,52,156,33*76
$GPGSV,3,3,12,33,63
07:17:28  8
$BDGSV,3,1,10,01,,,38,02,,,33,03,54,187,32,04,29,117,8.000,3029.45898,N,11409.16271,E,1
07:17:28  35*60
$BDGSV,3,2,10,06,75,314,33,08,59,160,39,03,54,187,32,04,29,117,
07:17:28  ,09,57,255,38,13,80,223,40*6C
$BDGSV,3,3,10,14,31,063,30,39
07:17:28  9,16,71,289,43*64
$GNRMC,071728.000,A,3029.4589GSV,3,3,10,14,31,063,3
07:17:28  8,N,11409.16271,E,22.21,128.61,300919,,,A*48
$,3,3,10,14,31,063,3
07:17:28  GNVTG,128.61,T,,M,22.21,N,41.12,K,A*2A
$GNZDA,071728.000,30,09,2
07:17:28  019,00,00*43
$GPTXT,01,01,01,ANTENNA OK*35

07:17:28  $GNGGA
07:17:28  ,071729.000,3029.45521,N,11409.16863,E,1,19,0.01
07:17:28  7,24.6,M,0.0,M,,*4F
$GNGLL,3029.45521,N,11409.
07:17:28  16863,E,071729.000,A,A*45
$GPGSA,A,3,02,05,13,15,20,21,29.45521,N,11409.
07:17:28  4,29,33,34,35,36,1.3,0.7,1.1*3E
$BDGSA,A,3,04,0,21,2
07:17:28  06,08,09,13,14,16,,,,,,1.3,0.7,1.1*25
$GPGSV,3,1,12,02,A,3,04,
07:17:29  06,147,24,05,26,086,33,13,39,039,38,15,70,360,,12,02,
07:17:29  32*79
$GPGSV,3,2,12,20,24,304,31,21,46,311,43,22,04,29,117,
07:17:29  4,43,167,31,29,24,220,38*7A
$GPGSV,3,3,12,33,63,060,38,21,46,311,43,2
07:17:29  34,30,132,34,35,15,167,29,36,52,156,33*78
$BDGSV,3,3,12,33,63,060,38,
07:17:29  SV,3,1,10,01,,,38,02,,,30,03,54,187,03,04,29,117,35*61
$6
07:17:29  BDGSV,3,2,10,06,75,314,33,08,59,160,39,09,57,29
07:17:29  55,39,13,80,223,41*6C
$BDGSV,3,3,10,14,31,063,39,16,71,311,43,2
07:17:29  289,43*64
$GNRMC,071729.000,A,3029.45521,N,114010,14,31,063,39,16,71,
07:17:29  9.16863,E,21.89,127.89,300919,,,A*47
$GNVTG,127.89,T,,M,21.89,N,40.54,K,A*21
$GNZDA,071729.000,30,09,2019,00,00*42
$GP63,N,11409.1506
07:17:29  TXT,01,01,01,ANTENNA OK*35
N
07:17:29  $GNGGA,071730.000,3029.45162,N,11409.17455,E,1,19,0.7,24.5,M,0.0,M,,*4F
$GN
07:17:29  GLL,3029.45162,N,11409.17455,E,071730.000,A,A*4029.45162
07:17:29  6
$GPGSA,A,3,02,05,13,15,20,21,24,29,33,34,35M
07:17:29  ,36,1.3,0.7,1.1*3E
$BDGSA,A,3,04,06,08,09,13,14,16,,,,,
07:17:30  ,1.3,0.7,1.1*25
$GPGSV,3,1,12,02,06,147,24,05,29,13,14,16,,,,,
07:17:30  6,086,33,13,39,039,38,15,70,360,32*79
$GPGSV,3,2,12,20,3,14,16,,,,,
07:17:30  24,304,31,21,46,311,44,24,43,167,31,29,24,220,38
07:17:30  *7D
$GPGSV,3,3,12,33,63,060,39,34,30,132,34,35,15,167,2A
07:17:30  6,36,52,156,33*76
$BDGSV,3,1,10,01,,,38,02,,,34,30,132,34,35,15,167,2
07:17:30  30,03,54,187,03,04,29,117,35*61
$BDGSV,3,2,10,06,75,314,01,,,38,02,,,
07:17:30  ,33,08,59,160,38,09,57,255,39,13,80,223,41*6D
$10,06,75,314
07:17:30  BDGSV,3,3,10,14,31,063,39,16,71,289,43*64
$GNR5
07:17:30  MC,071730.000,A,3029.45162,N,11409.17455,E,21.72,127.43,23
07:17:30  300919,,,A*46
$GNVTG,127.43,T,,M,21.72,N,40.2,34,35,15,167,2
07:17:30  2,K,A*22
$GNZDA,071730.000,30,09,2019,00,00*4A
$GPTXT,0,T,,M,21.72,N,40.2
07:17:30  1,01,01,ANTENNA OK*35
2
07:17:30  $GNGG
07:17:30  A,071731.000,3029.44799,N,11409.18009,E,1,19,0730.000
07:17:30  .7,24.2,M,0.0,M,,*48
$GNGLL,3029.44799,N,114092,N,40.2
07:17:30  .18009,E,071731.000,A,A*46
$GPGSA,A,3,02,05,13,15,20,21029.44799,N,11409
07:17:30  ,24,29,33,34,35,36,1.3,0.7,1.1*3E
$BDGSA,A,3,0420,21
07:17:30  ,06,08,09,13,14,16,,,,,,1.3,0.7,1.1*25
$GPGSV,3,1,12,02,A,3,04
07:17:31  ,06,147,25,05,26,086,33,13,39,039,36,15,70,3601,12,02
07:17:31  ,32*76
$GPGSV,3,2,12,20,24,304,31,21,46,311,44,35,15,167,2
07:17:31  24,43,167,31,29,24,220,38*7D
$GPGSV,3,3,12,33,63,060,40,21,46,311,44,
07:17:31  ,34,30,132,34,35,15,167,26,36,52,156,34*7F
$BDGSV,3,3,12,33,63,060,40
07:17:31  GSV,3,1,10,01,,,38,02,,,30,03,54,187,03,04,29,117,35*61156
07:17:31  
$BDGSV,3,2,10,06,75,314,33,08,59,160,38,09,57,,44,
07:17:31  255,38,13,80,223,41*6C
$BDGSV,3,3,10,14,31,063,38,16,71,57,
07:17:31  ,289,43*65
$GNRMC,071731.000,A,3029.44799,N,113,10,14,31,063,38,16,71
07:17:31  409.18009,E,20.52,127.28,300919,,,A*48
$GNVTG,127.28,T,,M,20.52,N,38.01,K,A*22
$GNZDA,071731.000,30,09,2019,00,00*4B
$GP
07:17:31  PTXT,01,01,01,ANTENNA OK*35
N
07:17:31  $GNGGA,071732.000,3029.44450,N,11409.18532,E,1,20,0.7,23.8,M,0.0,M,,*47
$G1
07:17:31  NGLL,3029.44450,N,11409.18532,E,071732.000,A,A*4E
$GPGSA
07:17:31  ,A,3,02,05,13,15,20,21,24,29,33,34,35,36,1.3,0.$GPGSA
07:17:31  7,1.1*3E
$BDGSA,A,3,03,04,06,08,09,13,14,16,,,,,1.3,0.7
07:17:32  ,1.1*26
$GPGSV,3,1,12,02,06,147,25,05,26,086,14,16,,,,,1.3,0.7
07:17:32  34,13,39,039,36,15,70,360,32*71
$GPGSV,3,2,12,20,24,304,,16,,,,,1.3,0.7
07:17:32  31,21,46,311,44,24,43,167,31,29,24,220,34*71
$GPGSV,3,2,12,20,24,304,
07:17:32  GPGSV,3,3,12,33,63,060,38,34,30,132,34,35,15,167
07:17:32  7,26,36,52,156,34*70
$BDGSV,3,1,10,01,,,38,02,,,30,03,54,0.7
07:17:32  ,187,34,04,29,117,35*65
$BDGSV,3,2,10,06,75,310,01,,,38,02,,,30,03,54
07:17:32  14,34,08,59,160,38,09,57,256,38,13,80,223,41*68
$BDGSV,75,3
07:17:32  3,3,10,14,31,063,38,16,71,289,43*65
$GNRMC,0713
07:17:32  732.000,A,3029.44450,N,11409.18532,E,19.79,127.20,300919,8
$BDGSV,
07:17:32  ,,A*4B
$GNVTG,127.20,T,,M,19.79,N,36.66,K,A*26
$GNZDA
07:17:32  
$GNZDA,071732.000,30,09,2019,00,00*48
$GPTXT,01,01,01506
07:17:32  ,ANTENNA OK*35
N
07:17:32  $GNGGA9.18532
07:17:32  ,071733.000,3029.44116,N,11409.19034,E,1,20,0.7127.20
07:17:32  ,23.4,M,0.0,M,,*4F
$GNGLL,3029.44116,N,11409.
07:17:32  19034,E,071733.000,A,A*4A
$GPGSA,A,3,02,05,13,15,20,21,29.44116,N,11409.
07:17:32  24,29,33,34,35,36,1.3,0.7,1.1*3E
$BDGSA,A,3,03,0,21,
07:17:32  04,06,08,09,13,14,16,,,,,1.3,0.7,1.1*26
$GPGSV
$BDGSA,A,3,03,
07:17:33  ,3,1,12,02,06,147,25,05,26,086,34,13,39,039,37,15,70,360
$BDGSA,A,3,03,
07:17:33  ,33*71
$GPGSV,3,2,12,20,24,304,31,21,46,311,4K
07:17:33  4,24,43,167,31,29,24,220,34*71
$GPGSV,3,3,12,33,63,060,31,21,46,311,4
07:17:33  8,34,30,132,34,35,15,167,26,36,52,156,33*77
$BPGSV,3,3,12,33,63,060,3
07:17:33  DGSV,3,1,10,01,,,38,02,,,30,03,54,187,34,04,29,117,35*65
07:17:33  
$BDGSV,3,2,10,06,75,314,34,08,59,160,40,09,57,,4
07:17:33  256,38,13,80,223,41*67
$BDGSV,3,3,10,14,31,063,39,16,71,57,
07:17:33  ,289,43*64
$GNRMC,071733.000,A,3029.44116,N,1,3,10,14,31,063,39,16,71
07:17:33  1409.19034,E,18.67,127.21,300919,,,A*40
$GNVTG,127.21,T,,M,18.67,N,34.58,K,A*26
$GNZDA,071733.000,30,09,2019,00,00*49
$GPTXT,01,01,01
07:17:33  PTXT,01,01,01,ANTENNA OK*35
N
07:17:33  $GNGGA,071734.000,3029.43801,N,11409.19499,E,1,20,0.7,23.1,M,0.0,M,,*46
$GNGLL,3029.438ZDA
07:17:33  01,N,11409.19499,E,071734.000,A,A*46
$GPGSA,A,11409.19499
07:17:33  3,02,05,13,15,20,21,24,29,33,34,35,36,1.3,0.7,1.1*3E
$BD9.19499
07:17:33  GSA,A,3,03,04,06,08,09,13,14,16,,,,,1.3,0.7,1.1
07:17:34  *26
$GPGSV,3,1,12,02,06,147,27,05,26,086,34,1M
07:17:34  3,39,039,35,15,70,360,33*71
$GPGSV,3,2,12,20,24,304,31,
07:17:34  21,46,311,44,24,43,167,32,29,24,220,16*72
$GPGSV,3,2,12,20,24,304,31,
07:17:34  V,3,3,12,33,63,060,38,34,30,132,34,35,15,167,26,36,52,150
07:17:34  6,33*77
$BDGSV,3,1,10,01,,,38,02,,,30,03,54,187L,3029.438
07:17:34  ,34,04,29,117,35*65
$BDGSV,3,2,10,06,75,314,34,08,59,16,,30,03,54,187
07:17:34  0,40,09,57,256,38,13,80,223,41*67
$BDGSV,3,3,14,34,08,59,16
07:17:34  10,14,31,063,39,16,71,289,43*64
$GNRMC,071734.000,A,3027
$BDGSV,3,3,
07:17:34  9.43801,N,11409.19499,E,17.36,127.37,300919,,,A*BDGSV,3,3,
07:17:34  40
$GNVTG,127.37,T,,M,17.36,N,32.16,K,A*26
$G8
07:17:34  NZDA,071734.000,30,09,2019,00,00*4E
$GPTXT,01,01,01,ANT7
07:17:34  ENNA OK*35

07:17:34  $GN
07:17:34  GGA,071735.000,3029.43479,N,11409.19927,E,1,20,1,01,ANT
07:17:34  0.7,22.8,M,0.0,M,,*44
$GNGLL,3029.43479,N,114.36
07:17:34  09.19927,E,071735.000,A,A*4C
$GPGSA,A,3,02,05,13,15,20,,3029.43479,N,114
07:17:34  21,24,29,33,34,35,36,1.3,0.7,1.1*3E
$BDGSA,A,3,5,20,
